,Plant Name,UniqueID_Final,ORIS Plant Code,Boiler/Generator/Committed Unit,Unit ID,CAMD Database UnitID,PlantType,Combustion Turbine/IC Engine,Region Name,State Name,State Code,County,County Code,FIPS5,Capacity (MW),Heat Rate (Btu/kWh),On Line Year,Retirement Year,Firing,Bottom,Cogen?,Modeled Fuels,Wet/DryScrubber,Scrubber_Online_Year,Scrubber Efficiency,NOx Comb Control,NOx Post-Comb Control,SCR_Online_Year,SNCR_Online_Year,PM Control,FlueGasConditioning_Flag,Mercury_Controls,ACI_Online_Year,Mercury_Controls Efficiency,SO2 Permit Rate (lbs/mmBtu),Mode 1 NOx Rate (lbs/mmBtu),Mode 2 NOx Rate (lbs/mmBtu),Mode 3 NOx Rate  (lbs/mmBtu),Mode 4 NOx Rate  (lbs/mmBtu),Hg EMF for BIT,Hg EMF for SUB,Hg EMF for LIG,HCL Removal,DSI Unit,DSI Online Year,CCS,CCS Removal,C2G,C2G Online Year,BART Affected Unit,FuelType,Plant Code_x,Latitude,Longitude,Plant Code_y,Generator ID,Nameplate Energy Capacity (MWh),Maximum Charge Rate (MW),Maximum Discharge Rate (MW),Technology,Efficiency,Minimum Energy Capacity (MWh),FuelPrice($/MMBtu),CO2EmRate(lb/MMBtu),geometry,index_right,OBJECTID,PCA_REG,Shape_Leng,Shape_Area,PCA_Code,RTO_Code,region,FuelType2,hrGroup,MinDownTime(hrs),RampRate(MW/hr),StartCost($),MinLoad(MWh),RandOpCostAdder($/MWh),FOM(2012$/MW/yr),VOM(2012$/MWh),OpCost($/MWh),RegOfferElig,RegOfferCost($/MW),FlexOfferElig,ContOfferElig,YearAddedCE,Retired,YearRetiredByCE,YearRetiredByAge,GAMS Symbol
0,Nacogdoches Power,55708_B_BLR1,55708,B,BLR1,9227.0,Biomass,,ERC_REST,Texas,48,Nacogdoches,347,48347,100.0,15413.0,2012.0,9999,FBC,,N,Biomass,,,0.888,CF,SNCR,,2012.0,B,,,,,0.046,0.07362,0.07362,0.07362,0.07362,,,,,,,,,,,,Biomass,55708.0,31.832132,-94.90064,,,,,,,,,0.0,91.9,POINT (-94.90064 31.832132),65,66,66,15.9340527498,3.27567832348,p66,rto13,p64,Biomass,,4.0,100.0,10208.98176967541,40.0,0.0,105630.0,5.26,5.26,0,0.0,1,1,False,False,False,False,55708+BLR1
2,Whirlwind Energy Center,56673_G_WEC,56673,G,WEC,,Onshore Wind,,ERC_PHDL,Texas,48,Floyd,153,48153,57.0,0.0,2007.0,9999,,,N,Wind,,,,,,,,,,,,,,0.0,0.0,0.0,0.0,,,,,,,,,,,,Wind,56673.0,34.105,-101.0986,,,,,,,,,0.0,0.0,POINT (-101.0986 34.105),47,48,48,15.9627257016,8.88067499736,p48,rto8,p60,Wind,,0.0,57.0,5.819119608714985,0.0,0.0,39550.0,0.0,0.0,0,0.0,0,0,False,False,False,False,56673+WEC
3,Pattern Panhandle Wind LLC,58242_G_1,58242,G,1,,Onshore Wind,,ERC_PHDL,Texas,48,Carson,65,48065,218.0,0.0,2014.0,9999,,,N,Wind,,,,,,,,,,,,,,0.0,0.0,0.0,0.0,,,,,,,,,,,,Wind,58242.0,35.4275,-101.253056,,,,,,,,,0.0,0.0,POINT (-101.253056 35.4275),47,48,48,15.9627257016,8.88067499736,p48,rto8,p60,Wind,,0.0,218.0,22.255580257892394,0.0,0.0,39550.0,0.0,0.0,0,0.0,0,0,False,False,False,False,58242+1
4,"Grandview Wind Farm, LLC",58596_G_GRVWI,58596,G,GRVWI,,Onshore Wind,,ERC_PHDL,Texas,48,Carson,65,48065,200.6,0.0,2014.0,9999,,,N,Wind,,,,,,,,,,,,,,0.0,0.0,0.0,0.0,,,,,,,,,,,,Wind,58596.0,35.238333,-101.310833,,,,,,,,,0.0,0.0,POINT (-101.310833 35.238333),47,48,48,15.9627257016,8.88067499736,p48,rto8,p60,Wind,,0.0,200.6,20.479217429968877,0.0,0.0,39550.0,0.0,0.0,0,0.0,0,0,False,False,False,False,58596+GRVWI
5,Route 66 Wind Plant,58681_G_RT661,58681,G,RT661,,Onshore Wind,,ERC_PHDL,Texas,48,Carson,65,48065,150.0,0.0,2015.0,9999,,,N,Wind,,,,,,,,,,,,,,0.0,0.0,0.0,0.0,,,,,,,,,,,,Wind,58681.0,35.205278,-101.434167,,,,,,,,,0.0,0.0,POINT (-101.434167 35.205278),47,48,48,15.9627257016,8.88067499736,p48,rto8,p60,Wind,,0.0,150.0,15.313472654513117,0.0,0.0,39550.0,0.0,0.0,0,0.0,0,0,False,False,False,False,58681+RT661
6,Pattern Panhandle Wind 2 LLC,58720_G_1,58720,G,1,,Onshore Wind,,ERC_PHDL,Texas,48,Carson,65,48065,181.7,0.0,2014.0,9999,,,N,Wind,,,,,,,,,,,,,,0.0,0.0,0.0,0.0,,,,,,,,,,,,Wind,58720.0,35.442778,-101.372778,,,,,,,,,0.0,0.0,POINT (-101.372778 35.442778),47,48,48,15.9627257016,8.88067499736,p48,rto8,p60,Wind,,0.0,181.7,18.54971987550022,0.0,0.0,39550.0,0.0,0.0,0,0.0,0,0,False,False,False,False,58720+1
7,Miami Wind Energy Center,58765_G_1,58765,G,1,,Onshore Wind,,ERC_PHDL,Texas,48,Roberts,393,48393,288.6,0.0,2014.0,9999,,,N,Wind,,,,,,,,,,,,,,0.0,0.0,0.0,0.0,,,,,,,,,,,,Wind,58765.0,35.653889,-100.538611,,,,,,,,,0.0,0.0,POINT (-100.538611 35.653889),47,48,48,15.9627257016,8.88067499736,p48,rto8,p60,Wind,,0.0,288.6,29.463121387283238,0.0,0.0,39550.0,0.0,0.0,0,0.0,0,0,False,False,False,False,58765+1
8,Longhorn Wind,58772_G_GEN1,58772,G,GEN1,,Onshore Wind,,ERC_PHDL,Texas,48,Briscoe,45,48045,200.0,0.0,2015.0,9999,,,N,Wind,,,,,,,,,,,,,,0.0,0.0,0.0,0.0,,,,,,,,,,,,Wind,58772.0,34.311111,-101.251111,,,,,,,,,0.0,0.0,POINT (-101.251111 34.311111),47,48,48,15.9627257016,8.88067499736,p48,rto8,p60,Wind,,0.0,200.0,20.417963539350822,0.0,0.0,39550.0,0.0,0.0,0,0.0,0,0,False,False,False,False,58772+GEN1
9,TX Hereford Wind,58773_G_GEN1,58773,G,GEN1,,Onshore Wind,,ERC_PHDL,Texas,48,Deaf Smith,117,48117,200.0,0.0,2014.0,9999,,,N,Wind,,,,,,,,,,,,,,0.0,0.0,0.0,0.0,,,,,,,,,,,,Wind,58773.0,34.748056,-102.174444,,,,,,,,,0.0,0.0,POINT (-102.174444 34.748056),47,48,48,15.9627257016,8.88067499736,p48,rto8,p60,Wind,,0.0,200.0,20.417963539350822,0.0,0.0,39550.0,0.0,0.0,0,0.0,0,0,False,False,False,False,58773+GEN1
10,Spinning Spur Wind II,58774_G_GEN1,58774,G,GEN1,,Onshore Wind,,ERC_PHDL,Texas,48,Oldham,359,48359,161.0,0.0,2014.0,9999,,,N,Wind,,,,,,,,,,,,,,0.0,0.0,0.0,0.0,,,,,,,,,,,,Wind,58774.0,35.276944,-102.682778,,,,,,,,,0.0,0.0,POINT (-102.682778 35.276944),47,48,48,15.9627257016,8.88067499736,p48,rto8,p60,Wind,,0.0,161.0,16.436460649177413,0.0,0.0,39550.0,0.0,0.0,0,0.0,0,0,False,False,False,False,58774+GEN1
11,Spinning Spur Wind III,58775_G_GEN1,58775,G,GEN1,,Onshore Wind,,ERC_PHDL,Texas,48,Oldham,359,48359,194.0,0.0,2015.0,9999,,,N,Wind,,,,,,,,,,,,,,0.0,0.0,0.0,0.0,,,,,,,,,,,,Wind,58775.0,35.295,-102.721111,,,,,,,,,0.0,0.0,POINT (-102.721111 35.295),47,48,48,15.9627257016,8.88067499736,p48,rto8,p60,Wind,,0.0,194.0,19.8054246331703,0.0,0.0,39550.0,0.0,0.0,0,0.0,0,0,False,False,False,False,58775+GEN1
12,Mariah del Norte,59005_G_MAR1,59005,G,MAR1,,Onshore Wind,,ERC_PHDL,Texas,48,Parmer,369,48369,230.4,0.0,2016.0,9999,,,N,Wind,,,,,,,,,,,,,,0.0,0.0,0.0,0.0,,,,,,,,,,,,Wind,59005.0,34.6675,-102.577778,,,,,,,,,0.0,0.0,POINT (-102.577778 34.6675),47,48,48,15.9627257016,8.88067499736,p48,rto8,p60,Wind,,0.0,230.4,23.521493997332147,0.0,0.0,39550.0,0.0,0.0,0,0.0,0,0,False,False,False,False,59005+MAR1
13,"Colbec's Corner, LLC",59068_G_GVII,59068,G,GVII,,Onshore Wind,,ERC_PHDL,Texas,48,Carson,65,48065,200.0,0.0,2016.0,9999,,,N,Wind,,,,,,,,,,,,,,0.0,0.0,0.0,0.0,,,,,,,,,,,,Wind,59068.0,35.254184,-101.186622,,,,,,,,,0.0,0.0,POINT (-101.186622 35.254184),47,48,48,15.9627257016,8.88067499736,p48,rto8,p60,Wind,,0.0,200.0,20.417963539350822,0.0,0.0,39550.0,0.0,0.0,0,0.0,0,0,False,False,False,False,59068+GVII
14,South Plains Wind Phase I,59384_G_1,59384,G,1,,Onshore Wind,,ERC_PHDL,Texas,48,Floyd,153,48153,200.0,0.0,2015.0,9999,,,N,Wind,,,,,,,,,,,,,,0.0,0.0,0.0,0.0,,,,,,,,,,,,Wind,59384.0,34.080556,-101.323611,,,,,,,,,0.0,0.0,POINT (-101.323611 34.080556),47,48,48,15.9627257016,8.88067499736,p48,rto8,p60,Wind,,0.0,200.0,20.417963539350822,0.0,0.0,39550.0,0.0,0.0,0,0.0,0,0,False,False,False,False,59384+1
15,TX Jumbo Road Wind,59621_G_JRWND,59621,G,JRWND,,Onshore Wind,,ERC_PHDL,Texas,48,Deaf Smith,117,48117,299.7,0.0,2015.0,9999,,,N,Wind,,,,,,,,,,,,,,0.0,0.0,0.0,0.0,,,,,,,,,,,,Wind,59621.0,34.72,-102.253333,,,,,,,,,0.0,0.0,POINT (-102.253333 34.72),47,48,48,15.9627257016,8.88067499736,p48,rto8,p60,Wind,,0.0,299.7,30.596318363717202,0.0,0.0,39550.0,0.0,0.0,0,0.0,0,0,False,False,False,False,59621+JRWND
16,South Plains II,60087_G_SPII,60087,G,SPII,,Onshore Wind,,ERC_PHDL,Texas,48,Floyd,153,48153,300.0,0.0,2016.0,9999,,,N,Wind,,,,,,,,,,,,,,0.0,0.0,0.0,0.0,,,,,,,,,,,,Wind,60087.0,34.196962,-101.381494,,,,,,,,,0.0,0.0,POINT (-101.381494 34.196962),47,48,48,15.9627257016,8.88067499736,p48,rto8,p60,Wind,,0.0,300.0,30.626945309026233,0.0,0.0,39550.0,0.0,0.0,0,0.0,0,0,False,False,False,False,60087+SPII
17,Cotton Plains Wind Farm,60210_G_CPWF,60210,G,CPWF,,Onshore Wind,,ERC_PHDL,Texas,48,Floyd,153,48153,50.4,0.0,2017.0,9999,,,N,Wind,,,,,,,,,,,,,,0.0,0.0,0.0,0.0,,,,,,,,,,,,Wind,60210.0,34.060333,-101.187628,,,,,,,,,0.0,0.0,POINT (-101.187628 34.060333),47,48,48,15.9627257016,8.88067499736,p48,rto8,p60,Wind,,0.0,50.4,5.145326811916407,0.0,0.0,39550.0,0.0,0.0,0,0.0,0,0,False,False,False,False,60210+CPWF
18,Old Settler Wind,60366_G_OSWF,60366,G,OSWF,,Onshore Wind,,ERC_PHDL,Texas,48,Floyd,153,48153,151.2,0.0,2017.0,9999,,,N,Wind,,,,,,,,,,,,,,0.0,0.0,0.0,0.0,,,,,,,,,,,,Wind,60366.0,34.060333,-101.187628,,,,,,,,,0.0,0.0,POINT (-101.187628 34.060333),47,48,48,15.9627257016,8.88067499736,p48,rto8,p60,Wind,,0.0,151.2,15.43598043574922,0.0,0.0,39550.0,0.0,0.0,0,0.0,0,0,False,False,False,False,60366+OSWF
19,Bethel Wind Farm LLC,60414_G_GEN1,60414,G,GEN1,,Onshore Wind,,ERC_PHDL,Texas,48,Castro,69,48069,276.0,0.0,2017.0,9999,,,N,Wind,,,,,,,,,,,,,,0.0,0.0,0.0,0.0,,,,,,,,,,,,Wind,60414.0,34.575311,-102.474698,,,,,,,,,0.0,0.0,POINT (-102.474698 34.575311),47,48,48,15.9627257016,8.88067499736,p48,rto8,p60,Wind,,0.0,276.0,28.176789684304136,0.0,0.0,39550.0,0.0,0.0,0,0.0,0,0,False,False,False,False,60414+GEN1
20,Astra Wind Farm,60856_G_ASTRA,60856,G,ASTRA,,Onshore Wind,,ERC_PHDL,Texas,48,Randall,381,48381,163.0,0.0,2017.0,9999,,,N,Wind,,,,,,,,,,,,,,0.0,0.0,0.0,0.0,,,,,,,,,,,,Wind,60856.0,34.769544,-102.052422,,,,,,,,,0.0,0.0,POINT (-102.052422 34.769544),47,48,48,15.9627257016,8.88067499736,p48,rto8,p60,Wind,,0.0,163.0,16.64064028457092,0.0,0.0,39550.0,0.0,0.0,0,0.0,0,0,False,False,False,False,60856+ASTRA
30,Pattern Gulf Wind,56661_G_1,56661,G,1,,Onshore Wind,,ERC_REST,Texas,48,Kenedy,261,48261,283.2,0.0,2008.0,9999,,,N,Wind,,,,,,,,,,,,,,0.0,0.0,0.0,0.0,,,,,,,,,,,,Wind,56661.0,27.0011,-97.5994,,,,,,,,,0.0,0.0,POINT (-97.5994 27.0011),64,65,65,51.695295702,9.56289745704,p65,rto10,p65,Wind,,0.0,283.2,28.911836371720764,0.0,0.0,39550.0,0.0,0.0,0,0.0,0,0,False,False,False,False,56661+1
31,Penascal Wind Power LLC,56795_G_1,56795,G,1,,Onshore Wind,,ERC_REST,Texas,48,Kenedy,261,48261,201.6,0.0,2009.0,9999,,,N,Wind,,,,,,,,,,,,,,0.0,0.0,0.0,0.0,,,,,,,,,,,,Wind,56795.0,27.0702,-97.5077,,,,,,,,,0.0,0.0,POINT (-97.5077 27.0702),64,65,65,51.695295702,9.56289745704,p65,rto10,p65,Wind,,0.0,201.6,20.581307247665627,0.0,0.0,39550.0,0.0,0.0,0,0.0,0,0,False,False,False,False,56795+1
32,EC&R Papalote Creek I LLC,56983_G_1,56983,G,1,,Onshore Wind,,ERC_REST,Texas,48,San Patricio,409,48409,180.0,0.0,2009.0,9999,,,N,Wind,,,,,,,,,,,,,,0.0,0.0,0.0,0.0,,,,,,,,,,,,Wind,56983.0,27.9386,-97.4586,,,,,,,,,0.0,0.0,POINT (-97.4586 27.9386),64,65,65,51.695295702,9.56289745704,p65,rto10,p65,Wind,,0.0,180.0,18.376167185415742,0.0,0.0,39550.0,0.0,0.0,0,0.0,0,0,False,False,False,False,56983+1
33,Penascal II Wind Project LLC,57095_G_1,57095,G,1,,Onshore Wind,,ERC_REST,Texas,48,Kenedy,261,48261,201.0,0.0,2010.0,9999,,,N,Wind,,,,,,,,,,,,,,0.0,0.0,0.0,0.0,,,,,,,,,,,,Wind,57095.0,27.1197,-97.5499,,,,,,,,,0.0,0.0,POINT (-97.54989999999999 27.1197),64,65,65,51.695295702,9.56289745704,p65,rto10,p65,Wind,,0.0,201.0,20.520053357047576,0.0,0.0,39550.0,0.0,0.0,0,0.0,0,0,False,False,False,False,57095+1
35,EC&R Papalote Creek II LLC,57212_G_1,57212,G,1,,Onshore Wind,,ERC_REST,Texas,48,San Patricio,409,48409,200.1,0.0,2010.0,9999,,,N,Wind,,,,,,,,,,,,,,0.0,0.0,0.0,0.0,,,,,,,,,,,,Wind,57212.0,27.9958,-97.2967,,,,,,,,,0.0,0.0,POINT (-97.2967 27.9958),64,65,65,51.695295702,9.56289745704,p65,rto10,p65,Wind,,0.0,200.1,20.428172521120498,0.0,0.0,39550.0,0.0,0.0,0,0.0,0,0,False,False,False,False,57212+1
36,Cedro Hill Wind LLC,57260_G_1,57260,G,1,,Onshore Wind,,ERC_REST,Texas,48,Webb,479,48479,150.0,0.0,2010.0,9999,,,N,Wind,,,,,,,,,,,,,,0.0,0.0,0.0,0.0,,,,,,,,,,,,Wind,57260.0,27.576111,-98.905278,,,,,,,,,0.0,0.0,POINT (-98.905278 27.576111),64,65,65,51.695295702,9.56289745704,p65,rto10,p65,Wind,,0.0,150.0,15.313472654513117,0.0,0.0,39550.0,0.0,0.0,0,0.0,0,0,False,False,False,False,57260+1
37,Hidalgo Wind Farm LLC,57617_G_GEN1,57617,G,GEN1,,Onshore Wind,,ERC_REST,Texas,48,Hidalgo,215,48215,250.0,0.0,2016.0,9999,,,N,Wind,,,,,,,,,,,,,,0.0,0.0,0.0,0.0,,,,,,,,,,,,Wind,57617.0,26.465556,-98.411111,,,,,,,,,0.0,0.0,POINT (-98.41111100000001 26.465556),64,65,65,51.695295702,9.56289745704,p65,rto10,p65,Wind,,0.0,250.0,25.522454424188528,0.0,0.0,39550.0,0.0,0.0,0,0.0,0,0,False,False,False,False,57617+GEN1
38,Los Vientos Wind 1A,57751_G_1,57751,G,1,,Onshore Wind,,ERC_REST,Texas,48,Cameron,61,48061,200.0,0.0,2012.0,9999,,,N,Wind,,,,,,,,,,,,,,0.0,0.0,0.0,0.0,,,,,,,,,,,,Wind,57751.0,26.33072,-97.5857,,,,,,,,,0.0,0.0,POINT (-97.5857 26.33072),64,65,65,51.695295702,9.56289745704,p65,rto10,p65,Wind,,0.0,200.0,20.417963539350822,0.0,0.0,39550.0,0.0,0.0,0,0.0,0,0,False,False,False,False,57751+1
39,Los Vientos Wind 1B,57752_G_1,57752,G,1,,Onshore Wind,,ERC_REST,Texas,48,Cameron,61,48061,201.6,0.0,2012.0,9999,,,N,Wind,,,,,,,,,,,,,,0.0,0.0,0.0,0.0,,,,,,,,,,,,Wind,57752.0,26.34892,-97.6668,,,,,,,,,0.0,0.0,POINT (-97.66679999999999 26.34892),64,65,65,51.695295702,9.56289745704,p65,rto10,p65,Wind,,0.0,201.6,20.581307247665627,0.0,0.0,39550.0,0.0,0.0,0,0.0,0,0,False,False,False,False,57752+1
40,Magic Valley Wind Farm I LLC,57802_G_MV1,57802,G,MV1,,Onshore Wind,,ERC_REST,Texas,48,Willacy,489,48489,203.0,0.0,2012.0,9999,,,N,Wind,,,,,,,,,,,,,,0.0,0.0,0.0,0.0,,,,,,,,,,,,Wind,57802.0,26.475278,-97.691111,,,,,,,,,0.0,0.0,POINT (-97.69111100000001 26.475278),64,65,65,51.695295702,9.56289745704,p65,rto10,p65,Wind,,0.0,203.0,20.724232992441085,0.0,0.0,39550.0,0.0,0.0,0,0.0,0,0,False,False,False,False,57802+MV1
41,Baffin Wind,57927_G_1,57927,G,1,,Onshore Wind,,ERC_REST,Texas,48,Kenedy,261,48261,188.0,0.0,2014.0,9999,,,N,Wind,,,,,,,,,,,,,,0.0,0.0,0.0,0.0,,,,,,,,,,,,Wind,57927.0,27.223056,-97.789167,,,,,,,,,0.0,0.0,POINT (-97.78916700000001 27.223056),64,65,65,51.695295702,9.56289745704,p65,rto10,p65,Wind,,0.0,188.0,19.192885726989775,0.0,0.0,39550.0,0.0,0.0,0,0.0,0,0,False,False,False,False,57927+1
44,Whitetail,58021_G_1,58021,G,1,,Onshore Wind,,ERC_REST,Texas,48,Webb,479,48479,92.0,0.0,2012.0,9999,,,N,Wind,,,,,,,,,,,,,,0.0,0.0,0.0,0.0,,,,,,,,,,,,Wind,58021.0,27.488056,-99.005278,,,,,,,,,0.0,0.0,POINT (-99.005278 27.488056),64,65,65,51.695295702,9.56289745704,p65,rto10,p65,Wind,,0.0,92.0,9.39226322810138,0.0,0.0,39550.0,0.0,0.0,0,0.0,0,0,False,False,False,False,58021+1
48,OCI Alamo Solar I,58537_G_ASTRO,58537,G,ASTRO,,Batteries,,ERC_REST,Texas,48,Bexar,29,48029,1.0,0.0,2016.0,9999,,,N,Energy Storage,,,,,,,,,,,,,,0.0,0.0,0.0,0.0,,,,,,,,,,,,Energy Storage,58537.0,29.271667,-98.444722,58537.0,ASTRO,0.3,1,1,Batteries,0.81,0.0,0.0,0.0,POINT (-98.444722 29.271667),64,65,65,51.695295702,9.56289745704,p65,rto10,p65,Energy Storage,,0.0,1.0,0.0,1.0,0.0,0.0,0.0,0.0,0,0.0,1,1,False,False,False,False,58537+ASTRO
50,Bruennings Breeze Wind Farm,59066_G_MVII,59066,G,MVII,,Onshore Wind,,ERC_REST,Texas,48,Willacy,489,48489,228.0,0.0,2017.0,9999,,,N,Wind,,,,,,,,,,,,,,0.0,0.0,0.0,0.0,,,,,,,,,,,,Wind,59066.0,26.522222,-97.691111,,,,,,,,,0.0,0.0,POINT (-97.69111100000001 26.522222),64,65,65,51.695295702,9.56289745704,p65,rto10,p65,Wind,,0.0,228.0,23.27647843485994,0.0,0.0,39550.0,0.0,0.0,0,0.0,0,0,False,False,False,False,59066+MVII
51,Cameron Wind 1 LLC,59118_G_CAM1,59118,G,CAM1,,Onshore Wind,,ERC_REST,Texas,48,Cameron,61,48061,165.0,0.0,2015.0,9999,,,N,Wind,,,,,,,,,,,,,,0.0,0.0,0.0,0.0,,,,,,,,,,,,Wind,59118.0,26.195278,-97.466111,,,,,,,,,0.0,0.0,POINT (-97.466111 26.195278),64,65,65,51.695295702,9.56289745704,p65,rto10,p65,Wind,,0.0,165.0,16.84481991996443,0.0,0.0,39550.0,0.0,0.0,0,0.0,0,0,False,False,False,False,59118+CAM1
52,Chapman Ranch Wind I,59193_G_CHA1,59193,G,CHA1,,Onshore Wind,,ERC_REST,Texas,48,Nueces,355,48355,236.0,0.0,2017.0,9999,,,N,Wind,,,,,,,,,,,,,,0.0,0.0,0.0,0.0,,,,,,,,,,,,Wind,59193.0,27.5925,-97.500833,,,,,,,,,0.0,0.0,POINT (-97.500833 27.5925),64,65,65,51.695295702,9.56289745704,p65,rto10,p65,Wind,,0.0,236.0,24.093196976433973,0.0,0.0,39550.0,0.0,0.0,0,0.0,0,0,False,False,False,False,59193+CHA1
55,Los Vientos Windpower III,59320_G_GEN1,59320,G,GEN1,,Onshore Wind,,ERC_REST,Texas,48,Starr,427,48427,200.0,0.0,2015.0,9999,,,N,Wind,,,,,,,,,,,,,,0.0,0.0,0.0,0.0,,,,,,,,,,,,Wind,59320.0,26.388611,-98.806111,,,,,,,,,0.0,0.0,POINT (-98.806111 26.388611),64,65,65,51.695295702,9.56289745704,p65,rto10,p65,Wind,,0.0,200.0,20.417963539350822,0.0,0.0,39550.0,0.0,0.0,0,0.0,0,0,False,False,False,False,59320+GEN1
56,Los Vientos Windpower IV,59321_G_GEN1,59321,G,GEN1,,Onshore Wind,,ERC_REST,Texas,48,Starr,427,48427,200.0,0.0,2016.0,9999,,,N,Wind,,,,,,,,,,,,,,0.0,0.0,0.0,0.0,,,,,,,,,,,,Wind,59321.0,26.380556,-98.818333,,,,,,,,,0.0,0.0,POINT (-98.818333 26.380556),64,65,65,51.695295702,9.56289745704,p65,rto10,p65,Wind,,0.0,200.0,20.417963539350822,0.0,0.0,39550.0,0.0,0.0,0,0.0,0,0,False,False,False,False,59321+GEN1
57,Sendero Wind Energy,59654_G_1,59654,G,1,,Onshore Wind,,ERC_REST,Texas,48,Jim Hogg,247,48247,78.0,0.0,2015.0,9999,,,N,Wind,,,,,,,,,,,,,,0.0,0.0,0.0,0.0,,,,,,,,,,,,Wind,59654.0,27.18,-98.916667,,,,,,,,,0.0,0.0,POINT (-98.916667 27.18),64,65,65,51.695295702,9.56289745704,p65,rto10,p65,Wind,,0.0,78.0,7.963005780346821,0.0,0.0,39550.0,0.0,0.0,0,0.0,0,0,False,False,False,False,59654+1
58,"San Roman Wind I, LLC",59712_G_SRWI,59712,G,SRWI,,Onshore Wind,,ERC_REST,Texas,48,Cameron,61,48061,95.3,0.0,2017.0,9999,,,N,Wind,,,,,,,,,,,,,,0.0,0.0,0.0,0.0,,,,,,,,,,,,Wind,59712.0,26.125979,-97.377599,,,,,,,,,0.0,0.0,POINT (-97.377599 26.125979),64,65,65,51.695295702,9.56289745704,p65,rto10,p65,Wind,,0.0,95.3,9.729159626500666,0.0,0.0,39550.0,0.0,0.0,0,0.0,0,0,False,False,False,False,59712+SRWI
59,Los Vientos V Wind Power,60059_G_1,60059,G,1,,Onshore Wind,,ERC_REST,Texas,48,Starr,427,48427,110.0,0.0,2015.0,9999,,,N,Wind,,,,,,,,,,,,,,0.0,0.0,0.0,0.0,,,,,,,,,,,,Wind,60059.0,26.411689,-98.571554,,,,,,,,,0.0,0.0,POINT (-98.57155400000001 26.411689),64,65,65,51.695295702,9.56289745704,p65,rto10,p65,Wind,,0.0,110.0,11.229879946642951,0.0,0.0,39550.0,0.0,0.0,0,0.0,0,0,False,False,False,False,60059+1
60,"Javelina Wind Energy, LLC",60104_G_GEWTG,60104,G,GEWTG,,Onshore Wind,,ERC_REST,Texas,48,Webb,479,48479,249.7,0.0,2015.0,9999,,,N,Wind,,,,,,,,,,,,,,0.0,0.0,0.0,0.0,,,,,,,,,,,,Wind,60104.0,27.32,-99,,,,,,,,,0.0,0.0,POINT (-99 27.32),64,65,65,51.695295702,9.56289745704,p65,rto10,p65,Wind,,0.0,249.7,25.491827478879497,0.0,0.0,39550.0,0.0,0.0,0,0.0,0,0,False,False,False,False,60104+GEWTG
62,"Javelina Wind Energy II, LLC",60645_G_WJ21,60645,G,WJ21,,Onshore Wind,,ERC_REST,Texas,48,Webb,479,48479,200.0,0.0,2016.0,9999,,,N,Wind,,,,,,,,,,,,,,0.0,0.0,0.0,0.0,,,,,,,,,,,,Wind,60645.0,27.44,-98.91,,,,,,,,,0.0,0.0,POINT (-98.91 27.44),64,65,65,51.695295702,9.56289745704,p65,rto10,p65,Wind,,0.0,200.0,20.417963539350822,0.0,0.0,39550.0,0.0,0.0,0,0.0,0,0,False,False,False,False,60645+WJ21
65,South Texas Project,6251_G_1,6251,G,1,,Nuclear,,ERC_REST,Texas,48,Matagorda,321,48321,1280.0,10456.0,1988.0,2068,,,N,Nuclear Fuel,,,,,,,,,,,,,,0.0,0.0,0.0,0.0,,,,,,,,,,,,Nuclear Fuel,6251.0,28.795,-96.0481,,,,,,,,,0.6559195578450814,0.0,POINT (-96.04810000000001 28.795),64,65,65,51.695295702,9.56289745704,p65,rto10,p65,Nuclear Fuel,,20.0,102.4,653374.8332592263,1152.0,0.0,93280.0,2.14,8.99829489682817,0,0.0,1,1,False,False,False,False,6251+1
66,South Texas Project,6251_G_2,6251,G,2,,Nuclear,,ERC_REST,Texas,48,Matagorda,321,48321,1280.0,10456.0,1989.0,2069,,,N,Nuclear Fuel,,,,,,,,,,,,,,0.0,0.0,0.0,0.0,,,,,,,,,,,,Nuclear Fuel,6251.0,28.795,-96.0481,,,,,,,,,0.6559195578450814,0.0,POINT (-96.04810000000001 28.795),64,65,65,51.695295702,9.56289745704,p65,rto10,p65,Nuclear Fuel,,20.0,102.4,653374.8332592263,1152.0,0.0,93280.0,2.14,8.99829489682817,0,0.0,1,1,False,False,False,False,6251+2
70,J K Spruce,7097_B_BLR1,7097,B,BLR1,2939.0,Coal Steam,,ERC_REST,Texas,48,Bexar,29,48029,560.0,9754.0,1992.0,9999,tangential,wet,N,Subbituminous,Wet Scrubber,1992.0,0.93,LNC3,,,,B,,ACI,2015.0,,0.35,0.13973,0.13973,0.13973,0.13973,0.1,0.1,0.1,0.9800000000000001,,,,,,,,Subbituminous,7097.0,29.309722,-98.3203,,,,,,,,,1.751942379046926,214.3,POINT (-98.3203 29.309722),64,65,65,51.695295702,9.56289745704,p65,rto10,p65,Subbituminous,"(9739.0, 9754.0]",12.0,100.24,57170.2979101823,224.0,0.0,37800.0,4.47,21.558445965223715,1,0.0,1,1,False,False,False,False,7097+BLR1
71,J K Spruce,7097_B_BLR2,7097,B,BLR2,2940.0,Coal Steam,,ERC_REST,Texas,48,Bexar,29,48029,785.0,9724.0,2010.0,9999,tangential,wet,N,Subbituminous,Wet Scrubber,2010.0,0.95,AA + LNB + NH3,SCR,2010.0,,B,,ACI,2013.0,,0.1,0.04913,0.04913,0.04913,0.04913,0.1,0.1,0.1,0.99,,,,,,,,Subbituminous,7097.0,29.309722,-98.3203,,,,,,,,,1.751942379046926,214.3,POINT (-98.3203 29.309722),64,65,65,51.695295702,9.56289745704,p65,rto10,p65,Subbituminous,"(9723.999, 9739.0]",12.0,140.515,80140.50689195198,314.0,0.0,37800.0,4.47,21.505887693852305,1,0.0,1,1,False,False,False,False,7097+BLR2
105,Fayette Power Project,6179_B_3,6179,B,3,2829.0,Coal Steam,,ERC_REST,Texas,48,Fayette,149,48149,435.0,10631.0,1988.0,9999,tangential,dry,N,Subbituminous,Wet Scrubber,1988.0,0.9,LNC3,,,,ESPC,No,ACI,2016.0,,0.6,0.12284,0.12284,0.12284,0.12284,0.1,0.1,0.1,0.99,,,,,,,,Subbituminous,6179.0,29.9172,-96.7506,,,,,,,,,1.751942379046926,214.3,POINT (-96.75060000000001 29.9172),63,64,64,17.6037588908,6.78793955885,p64,rto10,p64,Subbituminous,"(10612.5, 10631.0]",12.0,77.865,44409.070698088035,174.0,0.0,37800.0,4.47,23.09489943164787,1,0.0,1,1,False,False,False,False,6179+3
114,Houston Chemical Complex Battleground,50043_G_GT3,50043,G,GT3,,Combined Cycle,,ERC_REST,Texas,48,Harris,201,48201,69.0,8951.0,2005.0,9999,,,Y,Natural Gas,,,,,SCR,,,,,,,,,0.01896,0.01896,0.01896,0.01896,,,,,,,,,,,,Natural Gas,50043.0,29.7314,-95.0839,,,,,,,,,3.6509190329230177,117.0,POINT (-95.0839 29.7314),66,67,67,11.5739826538,1.08612173738,p67,rto10,p67,Combined Cycle,"(7590.0, 9421.0]",4.0,44.091,7044.197421076034,27.6,0.0,13170.0,3.5999999999999996,36.27937626369393,1,0.0,1,1,False,False,False,False,50043+GT3
116,Rentech Nitrogen Pasadena Cogeneration,58870_G_MG202,58870,G,MG202,,Non-Fossil Waste,,ERC_REST,Texas,48,Harris,201,48201,14.0,7050.0,2015.0,9999,,,Y,Non-Fossil Waste,,,,,,,,,,,,,,0.0,0.0,0.0,0.0,,,,,,,,,,,,Non-Fossil Waste,58870.0,29.739444,-95.194722,,,,,,,,,0.0,160.1,POINT (-95.194722 29.739444),66,67,67,11.5739826538,1.08612173738,p67,rto10,p67,Non-Fossil Waste,"(7049.999, 8751.75]",4.0,14.0,1429.2574477545575,5.6000000000000005,0.0,105630.0,5.26,5.26,0,0.0,1,1,False,False,False,False,58870+MG202
117,Limestone,298_B_LIM1,298,B,LIM1,176.0,Coal Steam,,ERC_REST,Texas,48,Limestone,293,48293,831.0,10342.0,1985.0,9999,tangential,dry,N,"Lignite, Subbituminous",Wet Scrubber,1985.0,0.9,LNC3,SNCR,,1997.0,ESPC,No,ACI,2016.0,,0.6,0.16546,0.16546,0.16546,0.16546,0.1,0.1,0.1,0.9500000000000001,,,,,,,,Lignite,298.0,31.4219,-96.2525,,,,,,,,,1.751942379046926,215.4,POINT (-96.2525 31.4219),62,63,63,27.0123565705,13.5558014155,p63,rto10,p63,Lignite,"(10300.999, 10479.0]",12.0,148.749,84836.63850600267,332.40000000000003,0.0,37800.0,4.47,22.588588084103307,1,0.0,1,1,False,False,False,False,298+LIM1
118,Limestone,298_B_LIM2,298,B,LIM2,177.0,Coal Steam,,ERC_REST,Texas,48,Limestone,293,48293,858.0,10301.0,1986.0,9999,tangential,dry,N,"Lignite, Subbituminous",Wet Scrubber,1986.0,0.9,OFA,SNCR,,1997.0,ESPC,No,ACI,2016.0,,0.6,0.18149,0.18149,0.139,0.139,0.1,0.1,0.1,0.9500000000000001,,,,,,,,Lignite,298.0,31.4219,-96.2525,,,,,,,,,1.751942379046926,215.4,POINT (-96.2525 31.4219),62,63,63,27.0123565705,13.5558014155,p63,rto10,p63,Lignite,"(10300.999, 10479.0]",12.0,153.582,87593.06358381503,343.20000000000005,0.0,37800.0,4.47,22.516758446562385,1,0.0,1,1,False,False,False,False,298+LIM2
120,Mesquite Wind Power LLC,56395_G_1,56395,G,1,,Onshore Wind,,ERC_WEST,Texas,48,Shackelford,417,48417,200.0,0.0,2007.0,9999,,,N,Wind,,,,,,,,,,,,,,0.0,0.0,0.0,0.0,,,,,,,,,,,,Wind,56395.0,32.6256,-99.4928,,,,,,,,,0.0,0.0,POINT (-99.4928 32.6256),62,63,63,27.0123565705,13.5558014155,p63,rto10,p63,Wind,,0.0,200.0,20.417963539350822,0.0,0.0,39550.0,0.0,0.0,0,0.0,0,0,False,False,False,False,56395+1
121,Sandy Creek Energy Station,56611_B_S01,56611,B,S01,90551.0,Coal Steam,,ERC_REST,Texas,48,Mclennan,309,48309,940.0,9256.0,2013.0,9999,wall,dry,N,Subbituminous,Dry Scrubber,2013.0,0.9,LNB + OFA,SCR,2013.0,,B,,ACI,2013.0,,0.1,0.04783,0.04783,0.04783,0.04783,0.1,0.1,0.1,0.99,,,,,,,,Subbituminous,56611.0,31.474378,-96.957149,,,,,,,,,1.751942379046926,214.3,POINT (-96.957149 31.474378),62,63,63,27.0123565705,13.5558014155,p63,rto10,p63,Subbituminous,,12.0,168.26,95964.42863494887,376.0,0.0,37800.0,4.47,20.685978660458346,1,0.0,1,1,False,False,False,False,56611+S01
122,Silver Star I Wind Power Project,56771_G_1,56771,G,1,,Onshore Wind,,ERC_REST,Texas,48,Erath,143,48143,60.0,0.0,2008.0,9999,,,N,Wind,,,,,,,,,,,,,,0.0,0.0,0.0,0.0,,,,,,,,,,,,Wind,56771.0,32.338659,-98.476051,,,,,,,,,0.0,0.0,POINT (-98.476051 32.338659),62,63,63,27.0123565705,13.5558014155,p63,rto10,p63,Wind,,0.0,60.0,6.1253890618052464,0.0,0.0,39550.0,0.0,0.0,0,0.0,0,0,False,False,False,False,56771+1
123,Hackberry Wind Farm,56823_G_HWFG1,56823,G,HWFG1,,Onshore Wind,,ERC_WEST,Texas,48,Shackelford,417,48417,162.3,0.0,2008.0,9999,,,N,Wind,,,,,,,,,,,,,,0.0,0.0,0.0,0.0,,,,,,,,,,,,Wind,56823.0,32.7683,-99.4228,,,,,,,,,0.0,0.0,POINT (-99.4228 32.7683),62,63,63,27.0123565705,13.5558014155,p63,rto10,p63,Wind,,0.0,162.3,16.56917741218319,0.0,0.0,39550.0,0.0,0.0,0,0.0,0,0,False,False,False,False,56823+HWFG1
124,Barton Chapel Wind Farm,57156_G_BC,57156,G,BC,,Onshore Wind,,ERC_WEST,Texas,48,Jack,237,48237,120.0,0.0,2009.0,9999,,,N,Wind,,,,,,,,,,,,,,0.0,0.0,0.0,0.0,,,,,,,,,,,,Wind,57156.0,33.06797,-98.337652,,,,,,,,,0.0,0.0,POINT (-98.33765200000001 33.06797),62,63,63,27.0123565705,13.5558014155,p63,rto10,p63,Wind,,0.0,120.0,12.250778123610493,0.0,0.0,39550.0,0.0,0.0,0,0.0,0,0,False,False,False,False,57156+BC
125,Trinity Hills,57520_G_1,57520,G,1,,Onshore Wind,,ERC_WEST,Texas,48,Young,503,48503,225.0,0.0,2011.0,9999,,,N,Wind,,,,,,,,,,,,,,0.0,0.0,0.0,0.0,,,,,,,,,,,,Wind,57520.0,33.383611,-98.711944,,,,,,,,,0.0,0.0,POINT (-98.711944 33.383611),62,63,63,27.0123565705,13.5558014155,p63,rto10,p63,Wind,,0.0,225.0,22.970208981769673,0.0,0.0,39550.0,0.0,0.0,0,0.0,0,0,False,False,False,False,57520+1
126,Bobcat Bluff Wind Project LLC,57974_G_GEN1,57974,G,GEN1,,Onshore Wind,,ERC_WEST,Texas,48,Archer,9,48009,150.0,0.0,2012.0,9999,,,N,Wind,,,,,,,,,,,,,,0.0,0.0,0.0,0.0,,,,,,,,,,,,Wind,57974.0,33.493056,-98.581944,,,,,,,,,0.0,0.0,POINT (-98.58194399999999 33.493056),62,63,63,27.0123565705,13.5558014155,p63,rto10,p63,Wind,,0.0,150.0,15.313472654513117,0.0,0.0,39550.0,0.0,0.0,0,0.0,0,0,False,False,False,False,57974+GEN1
127,Senate Wind LLC,57981_G_GEN1,57981,G,GEN1,,Onshore Wind,,ERC_WEST,Texas,48,Jack,237,48237,150.0,0.0,2012.0,9999,,,N,Wind,,,,,,,,,,,,,,0.0,0.0,0.0,0.0,,,,,,,,,,,,Wind,57981.0,33.205801,-98.365069,,,,,,,,,0.0,0.0,POINT (-98.36506900000001 33.205801),62,63,63,27.0123565705,13.5558014155,p63,rto10,p63,Wind,,0.0,150.0,15.313472654513117,0.0,0.0,39550.0,0.0,0.0,0,0.0,0,0,False,False,False,False,57981+GEN1
128,Wolf Ridge Wind,58080_G_1,58080,G,1,,Onshore Wind,,ERC_REST,Texas,48,Cooke,97,48097,112.5,0.0,2008.0,9999,,,N,Wind,,,,,,,,,,,,,,0.0,0.0,0.0,0.0,,,,,,,,,,,,Wind,58080.0,33.733006,-97.428406,,,,,,,,,0.0,0.0,POINT (-97.428406 33.733006),62,63,63,27.0123565705,13.5558014155,p63,rto10,p63,Wind,,0.0,112.5,11.485104490884837,0.0,0.0,39550.0,0.0,0.0,0,0.0,0,0,False,False,False,False,58080+1
129,Goldthwaite Wind Energy Facility,58321_G_1,58321,G,1,,Onshore Wind,,ERC_REST,Texas,48,Mills,333,48333,150.0,0.0,2013.0,9999,,,N,Wind,,,,,,,,,,,,,,0.0,0.0,0.0,0.0,,,,,,,,,,,,Wind,58321.0,31.383333,-98.466667,,,,,,,,,0.0,0.0,POINT (-98.466667 31.383333),62,63,63,27.0123565705,13.5558014155,p63,rto10,p63,Wind,,0.0,150.0,15.313472654513117,0.0,0.0,39550.0,0.0,0.0,0,0.0,0,0,False,False,False,False,58321+1
130,Keechi Wind,58838_G_KW1,58838,G,KW1,,Onshore Wind,,ERC_WEST,Texas,48,Jack,237,48237,110.0,0.0,2015.0,9999,,,N,Wind,,,,,,,,,,,,,,0.0,0.0,0.0,0.0,,,,,,,,,,,,Wind,58838.0,33.143056,-98.161111,,,,,,,,,0.0,0.0,POINT (-98.16111100000001 33.143056),62,63,63,27.0123565705,13.5558014155,p63,rto10,p63,Wind,,0.0,110.0,11.229879946642951,0.0,0.0,39550.0,0.0,0.0,0,0.0,0,0,False,False,False,False,58838+KW1
131,Shannon Wind,59034_G_SHAN1,59034,G,SHAN1,,Onshore Wind,,ERC_WEST,Texas,48,Clay,77,48077,204.0,0.0,2015.0,9999,,,N,Wind,,,,,,,,,,,,,,0.0,0.0,0.0,0.0,,,,,,,,,,,,Wind,59034.0,33.509722,-98.360833,,,,,,,,,0.0,0.0,POINT (-98.360833 33.509722),62,63,63,27.0123565705,13.5558014155,p63,rto10,p63,Wind,,0.0,204.0,20.82632281013784,0.0,0.0,39550.0,0.0,0.0,0,0.0,0,0,False,False,False,False,59034+SHAN1
132,Windthorst-2,59238_G_WND2,59238,G,WND2,,Onshore Wind,,ERC_WEST,Texas,48,Archer,9,48009,67.6,0.0,2014.0,9999,,,N,Wind,,,,,,,,,,,,,,0.0,0.0,0.0,0.0,,,,,,,,,,,,Wind,59238.0,33.495278,-98.5,,,,,,,,,0.0,0.0,POINT (-98.5 33.495278),62,63,63,27.0123565705,13.5558014155,p63,rto10,p63,Wind,,0.0,67.6,6.901271676300578,0.0,0.0,39550.0,0.0,0.0,0,0.0,0,0,False,False,False,False,59238+WND2
133,Logans Gap Wind LLC,59442_G_1,59442,G,1,,Onshore Wind,,ERC_REST,Texas,48,Comanche,93,48093,200.1,0.0,2015.0,9999,,,N,Wind,,,,,,,,,,,,,,0.0,0.0,0.0,0.0,,,,,,,,,,,,Wind,59442.0,31.8225,-98.690556,,,,,,,,,0.0,0.0,POINT (-98.690556 31.8225),62,63,63,27.0123565705,13.5558014155,p63,rto10,p63,Wind,,0.0,200.1,20.428172521120498,0.0,0.0,39550.0,0.0,0.0,0,0.0,0,0,False,False,False,False,59442+1
135,"Tyler Bluff Wind Project, LLC",60502_G_GEN1,60502,G,GEN1,,Onshore Wind,,ERC_REST,Texas,48,Cooke,97,48097,125.6,0.0,2016.0,9999,,,N,Wind,,,,,,,,,,,,,,0.0,0.0,0.0,0.0,,,,,,,,,,,,Wind,60502.0,33.703851,-97.372009,,,,,,,,,0.0,0.0,POINT (-97.37200900000001 33.703851),62,63,63,27.0123565705,13.5558014155,p63,rto10,p63,Wind,,0.0,125.6,12.822481102712315,0.0,0.0,39550.0,0.0,0.0,0,0.0,0,0,False,False,False,False,60502+GEN1
136,"Rattlesnake Power, LLC",60743_G_WT1,60743,G,WT1,,Onshore Wind,,ERC_REST,Texas,48,Mcculloch,307,48307,160.0,0.0,2018.0,9999,,,N,Wind,,,,,,,,,,,,,,0.0,0.0,0.0,0.0,,,,,,,,,,,,Wind,60743.0,31.360331,-99.551356,,,,,,,,,0.0,0.0,POINT (-99.551356 31.360331),62,63,63,27.0123565705,13.5558014155,p63,rto10,p63,Wind,,0.0,160.0,16.33437083148066,0.0,0.0,39550.0,0.0,0.0,0,0.0,0,0,False,False,False,False,60743+WT1
138,Buckthorn Wind Project,60983_G_BWIND,60983,G,BWIND,,Onshore Wind,,ERC_REST,Texas,48,Erath,143,48143,100.5,0.0,2017.0,9999,,,N,Wind,,,,,,,,,,,,,,0.0,0.0,0.0,0.0,,,,,,,,,,,,Wind,60983.0,32.371306,-98.377389,,,,,,,,,0.0,0.0,POINT (-98.37738899999999 32.371306),62,63,63,27.0123565705,13.5558014155,p63,rto10,p63,Wind,,0.0,100.5,10.260026678523788,0.0,0.0,39550.0,0.0,0.0,0,0.0,0,0,False,False,False,False,60983+BWIND
139,Comanche Peak,6145_G_1,6145,G,1,,Nuclear,,ERC_REST,Texas,48,Somervell,425,48425,1205.0,10456.0,1990.0,2070,,,N,Nuclear Fuel,,,,,,,,,,,,,,0.0,0.0,0.0,0.0,,,,,,,,,,,,Nuclear Fuel,6145.0,32.298365,-97.785515,,,,,,,,,0.6559195578450814,0.0,POINT (-97.785515 32.298365),62,63,63,27.0123565705,13.5558014155,p63,rto10,p63,Nuclear Fuel,,20.0,96.4,615091.1516229435,1084.5,0.0,93280.0,2.14,8.99829489682817,0,0.0,1,1,False,False,False,False,6145+1
140,Comanche Peak,6145_G_2,6145,G,2,,Nuclear,,ERC_REST,Texas,48,Somervell,425,48425,1195.0,10456.0,1993.0,2073,,,N,Nuclear Fuel,,,,,,,,,,,,,,0.0,0.0,0.0,0.0,,,,,,,,,,,,Nuclear Fuel,6145.0,32.298365,-97.785515,,,,,,,,,0.6559195578450814,0.0,POINT (-97.785515 32.298365),62,63,63,27.0123565705,13.5558014155,p63,rto10,p63,Nuclear Fuel,,20.0,95.60000000000001,609986.6607381058,1075.5,0.0,93280.0,2.14,8.99829489682817,0,0.0,1,1,False,False,False,False,6145+2
142,Oak Grove (TX),6180_B_1,6180,B,1,2830.0,Coal Steam,,ERC_REST,Texas,48,Robertson,395,48395,840.0,10479.0,2010.0,9999,tangential,dry,N,Lignite,Wet Scrubber,2009.0,0.98,LNC2 + NH3,SCR,2009.0,,B,,ACI,2010.0,,0.192,0.07184,0.07184,0.07184,0.07184,0.1,0.1,0.1,0.99,,,,,,,,Lignite,6180.0,31.1803,-96.4866,,,,,,,,,1.751942379046926,215.4,POINT (-96.4866 31.1803),62,63,63,27.0123565705,13.5558014155,p63,rto10,p63,Lignite,"(10300.999, 10479.0]",12.0,150.35999999999999,85755.44686527345,336.0,0.0,37800.0,4.47,22.828604190032735,1,0.0,1,1,False,False,False,False,6180+1
143,Oak Grove (TX),6180_B_2,6180,B,2,2831.0,Coal Steam,,ERC_REST,Texas,48,Robertson,395,48395,825.0,10484.0,2011.0,9999,wall,dry,N,Lignite,Wet Scrubber,2010.0,0.98,LNB + NH3 + OFA,SCR,2010.0,,B,,ACI,2011.0,,0.192,0.07299,0.07299,0.07299,0.07299,0.1,0.1,0.1,0.99,,,,,,,,Lignite,6180.0,31.1803,-96.4866,,,,,,,,,1.751942379046926,215.4,POINT (-96.4866 31.1803),62,63,63,27.0123565705,13.5558014155,p63,rto10,p63,Lignite,"(10479.0, 11194.0]",12.0,147.67499999999998,84224.09959982215,330.0,0.0,37800.0,4.47,22.837363901927972,1,0.0,1,1,False,False,False,False,6180+2
155,Big Spring Wind Power Facility,54979_G_WIND,54979,G,WIND,,Onshore Wind,,ERC_WEST,Texas,48,Howard,227,48227,34.3,0.0,1998.0,9999,,,N,Wind,,,,,,,,,,,,,,0.0,0.0,0.0,0.0,,,,,,,,,,,,Wind,54979.0,32.2075,-101.388333,,,,,,,,,0.0,0.0,POINT (-101.388333 32.2075),59,60,60,14.0530094329,5.34604098118,p60,rto10,p60,Wind,,0.0,34.3,3.5016807469986655,0.0,0.0,39550.0,0.0,0.0,0,0.0,0,0,False,False,False,False,54979+WIND
156,Trent Wind Farm LP,55968_G_WTG1,55968,G,WTG1,,Onshore Wind,,ERC_WEST,Texas,48,Nolan,353,48353,150.0,0.0,2001.0,9999,,,N,Wind,,,,,,,,,,,,,,0.0,0.0,0.0,0.0,,,,,,,,,,,,Wind,55968.0,32.4301,-100.235652,,,,,,,,,0.0,0.0,POINT (-100.235652 32.4301),59,60,60,14.0530094329,5.34604098118,p60,rto10,p60,Wind,,0.0,150.0,15.313472654513117,0.0,0.0,39550.0,0.0,0.0,0,0.0,0,0,False,False,False,False,55968+WTG1
157,Brazos Wind Farm,56111_G_GEN1,56111,G,GEN1,,Onshore Wind,,ERC_WEST,Texas,48,Scurry,415,48415,160.0,0.0,2003.0,9999,,,N,Wind,,,,,,,,,,,,,,0.0,0.0,0.0,0.0,,,,,,,,,,,,Wind,56111.0,32.94793,-101.147784,,,,,,,,,0.0,0.0,POINT (-101.147784 32.94793),59,60,60,14.0530094329,5.34604098118,p60,rto10,p60,Wind,,0.0,160.0,16.33437083148066,0.0,0.0,39550.0,0.0,0.0,0,0.0,0,0,False,False,False,False,56111+GEN1
158,Sweetwater Wind  1 LLC,56211_G_SW1,56211,G,SW1,,Onshore Wind,,ERC_WEST,Texas,48,Nolan,353,48353,37.5,0.0,2003.0,9999,,,N,Wind,,,,,,,,,,,,,,0.0,0.0,0.0,0.0,,,,,,,,,,,,Wind,56211.0,32.3606,-100.3389,,,,,,,,,0.0,0.0,POINT (-100.3389 32.3606),59,60,60,14.0530094329,5.34604098118,p60,rto10,p60,Wind,,0.0,37.5,3.828368163628279,0.0,0.0,39550.0,0.0,0.0,0,0.0,0,0,False,False,False,False,56211+SW1
159,Sweetwater Wind 2 LLC,56212_G_SW2,56212,G,SW2,,Onshore Wind,,ERC_WEST,Texas,48,Nolan,353,48353,91.5,0.0,2005.0,9999,,,N,Wind,,,,,,,,,,,,,,0.0,0.0,0.0,0.0,,,,,,,,,,,,Wind,56212.0,32.3472,-100.3703,,,,,,,,,0.0,0.0,POINT (-100.3703 32.3472),59,60,60,14.0530094329,5.34604098118,p60,rto10,p60,Wind,,0.0,91.5,9.341218319253002,0.0,0.0,39550.0,0.0,0.0,0,0.0,0,0,False,False,False,False,56212+SW2
160,Sweetwater Wind 3 LLC,56311_G_SW3,56311,G,SW3,,Onshore Wind,,ERC_WEST,Texas,48,Nolan,353,48353,135.0,0.0,2005.0,9999,,,N,Wind,,,,,,,,,,,,,,0.0,0.0,0.0,0.0,,,,,,,,,,,,Wind,56311.0,32.290833,-100.4219,,,,,,,,,0.0,0.0,POINT (-100.4219 32.290833),59,60,60,14.0530094329,5.34604098118,p60,rto10,p60,Wind,,0.0,135.0,13.782125389061804,0.0,0.0,39550.0,0.0,0.0,0,0.0,0,0,False,False,False,False,56311+SW3
161,Sweetwater Wind 4 LLC,56337_G_SW4,56337,G,SW4,,Onshore Wind,,ERC_WEST,Texas,48,Nolan,353,48353,241.0,0.0,2007.0,9999,,,N,Wind,,,,,,,,,,,,,,0.0,0.0,0.0,0.0,,,,,,,,,,,,Wind,56337.0,32.3122,-100.5303,,,,,,,,,0.0,0.0,POINT (-100.5303 32.3122),59,60,60,14.0530094329,5.34604098118,p60,rto10,p60,Wind,,0.0,241.0,24.603646064917744,0.0,0.0,39550.0,0.0,0.0,0,0.0,0,0,False,False,False,False,56337+SW4
162,Sweetwater Wind 5,56372_G_SW5,56372,G,SW5,,Onshore Wind,,ERC_WEST,Texas,48,Nolan,353,48353,80.5,0.0,2007.0,9999,,,N,Wind,,,,,,,,,,,,,,0.0,0.0,0.0,0.0,,,,,,,,,,,,Wind,56372.0,32.236944,-100.4833,,,,,,,,,0.0,0.0,POINT (-100.4833 32.236944),59,60,60,14.0530094329,5.34604098118,p60,rto10,p60,Wind,,0.0,80.5,8.218230324588706,0.0,0.0,39550.0,0.0,0.0,0,0.0,0,0,False,False,False,False,56372+SW5
163,Post Wind Farm LP,56457_G_1,56457,G,1,,Onshore Wind,,ERC_WEST,Texas,48,Borden,33,48033,84.0,0.0,2006.0,9999,,,N,Wind,,,,,,,,,,,,,,0.0,0.0,0.0,0.0,,,,,,,,,,,,Wind,56457.0,32.92544,-101.219397,,,,,,,,,0.0,0.0,POINT (-101.219397 32.92544),59,60,60,14.0530094329,5.34604098118,p60,rto10,p60,Wind,,0.0,84.0,8.575544686527346,0.0,0.0,39550.0,0.0,0.0,0,0.0,0,0,False,False,False,False,56457+1
164,Buffalo Gap 2 Wind Farm,56484_G_1,56484,G,1,,Onshore Wind,,ERC_WEST,Texas,48,Nolan,353,48353,232.5,0.0,2007.0,9999,,,N,Wind,,,,,,,,,,,,,,0.0,0.0,0.0,0.0,,,,,,,,,,,,Wind,56484.0,32.318221,-100.176986,,,,,,,,,0.0,0.0,POINT (-100.176986 32.318221),59,60,60,14.0530094329,5.34604098118,p60,rto10,p60,Wind,,0.0,232.5,23.73588261449533,0.0,0.0,39550.0,0.0,0.0,0,0.0,0,0,False,False,False,False,56484+1
165,Scurry County Wind LP,56506_G_SCW,56506,G,SCW,,Onshore Wind,,ERC_WEST,Texas,48,Scurry,415,48415,130.5,0.0,2007.0,9999,,,N,Wind,,,,,,,,,,,,,,0.0,0.0,0.0,0.0,,,,,,,,,,,,Wind,56506.0,32.7204,-100.9952,,,,,,,,,0.0,0.0,POINT (-100.9952 32.7204),59,60,60,14.0530094329,5.34604098118,p60,rto10,p60,Wind,,0.0,130.5,13.322721209426412,0.0,0.0,39550.0,0.0,0.0,0,0.0,0,0,False,False,False,False,56506+SCW
166,Champion Wind Farm LLC,56592_G_CH1,56592,G,CH1,,Onshore Wind,,ERC_WEST,Texas,48,Nolan,353,48353,126.5,0.0,2008.0,9999,,,N,Wind,,,,,,,,,,,,,,0.0,0.0,0.0,0.0,,,,,,,,,,,,Wind,56592.0,32.3983,-100.6481,,,,,,,,,0.0,0.0,POINT (-100.6481 32.3983),59,60,60,14.0530094329,5.34604098118,p60,rto10,p60,Wind,,0.0,126.5,12.914361938639395,0.0,0.0,39550.0,0.0,0.0,0,0.0,0,0,False,False,False,False,56592+CH1
167,Roscoe Wind Farm LLC,56593_G_RO1,56593,G,RO1,,Onshore Wind,,ERC_WEST,Texas,48,Nolan,353,48353,209.0,0.0,2008.0,9999,,,N,Wind,,,,,,,,,,,,,,0.0,0.0,0.0,0.0,,,,,,,,,,,,Wind,56593.0,32.4694,-100.6664,,,,,,,,,0.0,0.0,POINT (-100.6664 32.4694),59,60,60,14.0530094329,5.34604098118,p60,rto10,p60,Wind,,0.0,209.0,21.33677189862161,0.0,0.0,39550.0,0.0,0.0,0,0.0,0,0,False,False,False,False,56593+RO1
168,Snyder Wind Farm,56602_G_SNY1,56602,G,SNY1,,Onshore Wind,,ERC_WEST,Texas,48,Scurry,415,48415,63.0,0.0,2007.0,9999,,,N,Wind,,,,,,,,,,,,,,0.0,0.0,0.0,0.0,,,,,,,,,,,,Wind,56602.0,32.739294,-100.738949,,,,,,,,,0.0,0.0,POINT (-100.738949 32.739294),59,60,60,14.0530094329,5.34604098118,p60,rto10,p60,Wind,,0.0,63.0,6.431658514895509,0.0,0.0,39550.0,0.0,0.0,0,0.0,0,0,False,False,False,False,56602+SNY1
169,McAdoo Wind Energy LLC,56773_G_1,56773,G,1,,Onshore Wind,,ERC_PHDL,Texas,48,Dickens,125,48125,150.0,0.0,2008.0,9999,,,N,Wind,,,,,,,,,,,,,,0.0,0.0,0.0,0.0,,,,,,,,,,,,Wind,56773.0,33.752201,-100.967402,,,,,,,,,0.0,0.0,POINT (-100.967402 33.752201),59,60,60,14.0530094329,5.34604098118,p60,rto10,p60,Wind,,0.0,150.0,15.313472654513117,0.0,0.0,39550.0,0.0,0.0,0,0.0,0,0,False,False,False,False,56773+1
170,Turkey Track Wind  Energy LLC,56774_G_1,56774,G,1,,Onshore Wind,,ERC_WEST,Texas,48,Nolan,353,48353,169.5,0.0,2008.0,9999,,,N,Wind,,,,,,,,,,,,,,0.0,0.0,0.0,0.0,,,,,,,,,,,,Wind,56774.0,32.1981,-100.2686,,,,,,,,,0.0,0.0,POINT (-100.2686 32.1981),59,60,60,14.0530094329,5.34604098118,p60,rto10,p60,Wind,,0.0,169.5,17.30422409959982,0.0,0.0,39550.0,0.0,0.0,0,0.0,0,0,False,False,False,False,56774+1
171,Scurry County Wind II,56775_G_1,56775,G,1,,Onshore Wind,,ERC_WEST,Texas,48,Scurry,415,48415,120.0,0.0,2007.0,9999,,,N,Wind,,,,,,,,,,,,,,0.0,0.0,0.0,0.0,,,,,,,,,,,,Wind,56775.0,32.718056,-100.793333,,,,,,,,,0.0,0.0,POINT (-100.793333 32.718056),59,60,60,14.0530094329,5.34604098118,p60,rto10,p60,Wind,,0.0,120.0,12.250778123610493,0.0,0.0,39550.0,0.0,0.0,0,0.0,0,0,False,False,False,False,56775+1
172,Gunsight Mountain Wind Energy LLC,56776_G_1,56776,G,1,,Onshore Wind,,ERC_WEST,Texas,48,Howard,227,48227,120.0,0.0,2016.0,9999,,,N,Wind,,,,,,,,,,,,,,0.0,0.0,0.0,0.0,,,,,,,,,,,,Wind,56776.0,32.240278,-101.473611,,,,,,,,,0.0,0.0,POINT (-101.473611 32.240278),59,60,60,14.0530094329,5.34604098118,p60,rto10,p60,Wind,,0.0,120.0,12.250778123610493,0.0,0.0,39550.0,0.0,0.0,0,0.0,0,0,False,False,False,False,56776+1
173,Elbow Creek Wind Project LLC,56783_G_1,56783,G,1,,Onshore Wind,,ERC_WEST,Texas,48,Howard,227,48227,121.9,0.0,2008.0,9999,,,N,Wind,,,,,,,,,,,,,,0.0,0.0,0.0,0.0,,,,,,,,,,,,Wind,56783.0,32.1408,-101.3986,,,,,,,,,0.0,0.0,POINT (-101.3986 32.1408),59,60,60,14.0530094329,5.34604098118,p60,rto10,p60,Wind,,0.0,121.9,12.444748777234325,0.0,0.0,39550.0,0.0,0.0,0,0.0,0,0,False,False,False,False,56783+1
174,EC&R Panther Creek Wind Farm I,56920_G_1,56920,G,1,,Onshore Wind,,ERC_WEST,Texas,48,Howard,227,48227,142.5,0.0,2008.0,9999,,,N,Wind,,,,,,,,,,,,,,0.0,0.0,0.0,0.0,,,,,,,,,,,,Wind,56920.0,32.100823,-101.451385,,,,,,,,,0.0,0.0,POINT (-101.451385 32.100823),59,60,60,14.0530094329,5.34604098118,p60,rto10,p60,Wind,,0.0,142.5,14.54779902178746,0.0,0.0,39550.0,0.0,0.0,0,0.0,0,0,False,False,False,False,56920+1
175,Bull Creek Wind,56956_G_001,56956,G,001,,Onshore Wind,,ERC_WEST,Texas,48,Borden,33,48033,180.0,0.0,2008.0,9999,,,N,Wind,,,,,,,,,,,,,,0.0,0.0,0.0,0.0,,,,,,,,,,,,Wind,56956.0,32.929014,-101.578617,,,,,,,,,0.0,0.0,POINT (-101.578617 32.929014),59,60,60,14.0530094329,5.34604098118,p60,rto10,p60,Wind,,0.0,180.0,18.376167185415742,0.0,0.0,39550.0,0.0,0.0,0,0.0,0,0,False,False,False,False,56956+001
176,Ocotillo Windpower,56959_G_OWF,56959,G,OWF,,Onshore Wind,,ERC_WEST,Texas,48,Howard,227,48227,58.8,0.0,2008.0,9999,,,N,Wind,,,,,,,,,,,,,,0.0,0.0,0.0,0.0,,,,,,,,,,,,Wind,56959.0,32.1217,-101.3853,,,,,,,,,0.0,0.0,POINT (-101.3853 32.1217),59,60,60,14.0530094329,5.34604098118,p60,rto10,p60,Wind,,0.0,58.8,6.002881280569142,0.0,0.0,39550.0,0.0,0.0,0,0.0,0,0,False,False,False,False,56959+OWF
177,Pyron Wind Farm LLC,56981_G_1,56981,G,1,,Onshore Wind,,ERC_WEST,Texas,48,Fisher,151,48151,249.0,0.0,2009.0,9999,,,N,Wind,,,,,,,,,,,,,,0.0,0.0,0.0,0.0,,,,,,,,,,,,Wind,56981.0,32.5886,-100.6728,,,,,,,,,0.0,0.0,POINT (-100.6728 32.5886),59,60,60,14.0530094329,5.34604098118,p60,rto10,p60,Wind,,0.0,249.0,25.420364606491773,0.0,0.0,39550.0,0.0,0.0,0,0.0,0,0,False,False,False,False,56981+1
178,Pyron Wind Farm LLC,56981_G_PYRBT,56981,G,PYRBT,,Batteries,,ERC_WEST,Texas,48,Fisher,151,48151,9.9,0.0,2017.0,9999,,,N,Energy Storage,,,,,,,,,,,,,,0.0,0.0,0.0,0.0,,,,,,,,,,,,Energy Storage,56981.0,32.5886,-100.6728,56981.0,PYRBT,9.9,9.9,9.9,Batteries,0.81,0.0,0.0,0.0,POINT (-100.6728 32.5886),59,60,60,14.0530094329,5.34604098118,p60,rto10,p60,Energy Storage,,0.0,9.9,0.0,9.9,0.0,0.0,0.0,0.0,0,0.0,1,1,False,False,False,False,56981+PYRBT
179,Inadale Wind Farm LLC,56984_G_1,56984,G,1,,Onshore Wind,,ERC_WEST,Texas,48,Nolan,353,48353,197.0,0.0,2009.0,9999,,,N,Wind,,,,,,,,,,,,,,0.0,0.0,0.0,0.0,,,,,,,,,,,,Wind,56984.0,32.4969,-100.5797,,,,,,,,,0.0,0.0,POINT (-100.5797 32.4969),59,60,60,14.0530094329,5.34604098118,p60,rto10,p60,Wind,,0.0,197.0,20.111694086260563,0.0,0.0,39550.0,0.0,0.0,0,0.0,0,0,False,False,False,False,56984+1
180,Inadale Wind Farm LLC,56984_G_INABT,56984,G,INABT,,Batteries,,ERC_WEST,Texas,48,Nolan,353,48353,9.9,0.0,2017.0,9999,,,N,Energy Storage,,,,,,,,,,,,,,0.0,0.0,0.0,0.0,,,,,,,,,,,,Energy Storage,56984.0,32.4969,-100.5797,56984.0,INABT,9.9,9.9,9.9,Batteries,0.81,0.0,0.0,0.0,POINT (-100.5797 32.4969),59,60,60,14.0530094329,5.34604098118,p60,rto10,p60,Energy Storage,,0.0,9.9,0.0,9.9,0.0,0.0,0.0,0.0,0,0.0,1,1,False,False,False,False,56984+INABT
181,Loraine Windpark Project LLC,57303_G_LWG1,57303,G,LWG1,,Onshore Wind,,ERC_WEST,Texas,48,Mitchell,335,48335,75.0,0.0,2009.0,9999,,,N,Wind,,,,,,,,,,,,,,0.0,0.0,0.0,0.0,,,,,,,,,,,,Wind,57303.0,32.4375,-100.7444,,,,,,,,,0.0,0.0,POINT (-100.7444 32.4375),59,60,60,14.0530094329,5.34604098118,p60,rto10,p60,Wind,,0.0,75.0,7.656736327256558,0.0,0.0,39550.0,0.0,0.0,0,0.0,0,0,False,False,False,False,57303+LWG1
182,Loraine Windpark Project LLC,57303_G_LWG2,57303,G,LWG2,,Onshore Wind,,ERC_WEST,Texas,48,Mitchell,335,48335,75.0,0.0,2009.0,9999,,,N,Wind,,,,,,,,,,,,,,0.0,0.0,0.0,0.0,,,,,,,,,,,,Wind,57303.0,32.4375,-100.7444,,,,,,,,,0.0,0.0,POINT (-100.7444 32.4375),59,60,60,14.0530094329,5.34604098118,p60,rto10,p60,Wind,,0.0,75.0,7.656736327256558,0.0,0.0,39550.0,0.0,0.0,0,0.0,0,0,False,False,False,False,57303+LWG2
183,Loraine Windpark Project LLC,57303_G_LWG3,57303,G,LWG3,,Onshore Wind,,ERC_WEST,Texas,48,Mitchell,335,48335,100.5,0.0,2012.0,9999,,,N,Wind,,,,,,,,,,,,,,0.0,0.0,0.0,0.0,,,,,,,,,,,,Wind,57303.0,32.4375,-100.7444,,,,,,,,,0.0,0.0,POINT (-100.7444 32.4375),59,60,60,14.0530094329,5.34604098118,p60,rto10,p60,Wind,,0.0,100.5,10.260026678523788,0.0,0.0,39550.0,0.0,0.0,0,0.0,0,0,False,False,False,False,57303+LWG3
184,Ralls Wind Farm,57474_G_1,57474,G,1,,Onshore Wind,,ERC_WEST,Texas,48,Crosby,107,48107,10.0,0.0,2011.0,9999,,,N,Wind,,,,,,,,,,,,,,0.0,0.0,0.0,0.0,,,,,,,,,,,,Wind,57474.0,33.661111,-101.39,,,,,,,,,0.0,0.0,POINT (-101.39 33.661111),59,60,60,14.0530094329,5.34604098118,p60,rto10,p60,Wind,,0.0,10.0,1.0208981769675411,0.0,0.0,39550.0,0.0,0.0,0,0.0,0,0,False,False,False,False,57474+1
185,Stephens Ranch Wind Energy LLC,57983_G_1,57983,G,1,,Onshore Wind,,ERC_WEST,Texas,48,Borden,33,48033,211.0,0.0,2014.0,9999,,,N,Wind,,,,,,,,,,,,,,0.0,0.0,0.0,0.0,,,,,,,,,,,,Wind,57983.0,32.926389,-101.647778,,,,,,,,,0.0,0.0,POINT (-101.647778 32.926389),59,60,60,14.0530094329,5.34604098118,p60,rto10,p60,Wind,,0.0,211.0,21.540951534015118,0.0,0.0,39550.0,0.0,0.0,0,0.0,0,0,False,False,False,False,57983+1
186,Stephens Ranch Wind Energy LLC,57983_G_2,57983,G,2,,Onshore Wind,,ERC_WEST,Texas,48,Borden,33,48033,165.0,0.0,2015.0,9999,,,N,Wind,,,,,,,,,,,,,,0.0,0.0,0.0,0.0,,,,,,,,,,,,Wind,57983.0,32.926389,-101.647778,,,,,,,,,0.0,0.0,POINT (-101.647778 32.926389),59,60,60,14.0530094329,5.34604098118,p60,rto10,p60,Wind,,0.0,165.0,16.84481991996443,0.0,0.0,39550.0,0.0,0.0,0,0.0,0,0,False,False,False,False,57983+2
187,BayWa r.e Mozart LLC,58048_G_1,58048,G,1,,Onshore Wind,,ERC_WEST,Texas,48,Kent,263,48263,30.0,0.0,2012.0,9999,,,N,Wind,,,,,,,,,,,,,,0.0,0.0,0.0,0.0,,,,,,,,,,,,Wind,58048.0,32.969722,-100.524167,,,,,,,,,0.0,0.0,POINT (-100.524167 32.969722),59,60,60,14.0530094329,5.34604098118,p60,rto10,p60,Wind,,0.0,30.0,3.0626945309026232,0.0,0.0,39550.0,0.0,0.0,0,0.0,0,0,False,False,False,False,58048+1
188,Blue Summit Wind LLC,58372_G_GEN1,58372,G,GEN1,,Onshore Wind,,ERC_WEST,Texas,48,Wilbarger,487,48487,135.4,0.0,2012.0,9999,,,N,Wind,,,,,,,,,,,,,,0.0,0.0,0.0,0.0,,,,,,,,,,,,Wind,58372.0,34.29,-99.364722,,,,,,,,,0.0,0.0,POINT (-99.364722 34.29),59,60,60,14.0530094329,5.34604098118,p60,rto10,p60,Wind,,0.0,135.4,13.822961316140507,0.0,0.0,39550.0,0.0,0.0,0,0.0,0,0,False,False,False,False,58372+GEN1
189,Wake Wind Energy Center,58766_G_1,58766,G,1,,Onshore Wind,,ERC_REST,Texas,48,Crosby,107,48107,257.0,0.0,2016.0,9999,,,N,Wind,,,,,,,,,,,,,,0.0,0.0,0.0,0.0,,,,,,,,,,,,Wind,58766.0,33.825,-101.099722,,,,,,,,,0.0,0.0,POINT (-101.099722 33.825),59,60,60,14.0530094329,5.34604098118,p60,rto10,p60,Wind,,0.0,257.0,26.237083148065807,0.0,0.0,39550.0,0.0,0.0,0,0.0,0,0,False,False,False,False,58766+1
191,Fluvanna,59245_G_FLUV1,59245,G,FLUV1,,Onshore Wind,,ERC_WEST,Texas,48,Scurry,415,48415,155.4,0.0,2017.0,9999,,,N,Wind,,,,,,,,,,,,,,0.0,0.0,0.0,0.0,,,,,,,,,,,,Wind,59245.0,32.931944,-101.143611,,,,,,,,,0.0,0.0,POINT (-101.143611 32.931944),59,60,60,14.0530094329,5.34604098118,p60,rto10,p60,Wind,,0.0,155.4,15.864757670075589,0.0,0.0,39550.0,0.0,0.0,0,0.0,0,0,False,False,False,False,59245+FLUV1
192,Mesquite Creek Wind,59332_G_MSCRK,59332,G,MSCRK,,Onshore Wind,,ERC_WEST,Texas,48,Dawson,115,48115,211.2,0.0,2015.0,9999,,,N,Wind,,,,,,,,,,,,,,0.0,0.0,0.0,0.0,,,,,,,,,,,,Wind,59332.0,32.7,-101.741111,,,,,,,,,0.0,0.0,POINT (-101.741111 32.7),59,60,60,14.0530094329,5.34604098118,p60,rto10,p60,Wind,,0.0,211.2,21.56136949755447,0.0,0.0,39550.0,0.0,0.0,0,0.0,0,0,False,False,False,False,59332+MSCRK
193,Pleasant Hill Wind Energy Project,59417_G_WT1,59417,G,WT1,,Onshore Wind,,ERC_WEST,Texas,48,Crosby,107,48107,20.0,0.0,2015.0,9999,,,N,Wind,,,,,,,,,,,,,,0.0,0.0,0.0,0.0,,,,,,,,,,,,Wind,59417.0,33.738889,-101.485,,,,,,,,,0.0,0.0,POINT (-101.485 33.738889),59,60,60,14.0530094329,5.34604098118,p60,rto10,p60,Wind,,0.0,20.0,2.0417963539350823,0.0,0.0,39550.0,0.0,0.0,0,0.0,0,0,False,False,False,False,59417+WT1
194,Green Pastures Wind I,59732_G_GPI,59732,G,GPI,,Onshore Wind,,ERC_WEST,Texas,48,Baylor,23,48023,150.0,0.0,2015.0,9999,,,N,Wind,,,,,,,,,,,,,,0.0,0.0,0.0,0.0,,,,,,,,,,,,Wind,59732.0,33.628222,-99.411169,,,,,,,,,0.0,0.0,POINT (-99.411169 33.628222),59,60,60,14.0530094329,5.34604098118,p60,rto10,p60,Wind,,0.0,150.0,15.313472654513117,0.0,0.0,39550.0,0.0,0.0,0,0.0,0,0,False,False,False,False,59732+GPI
195,Green Pastures Wind II,59733_G_GPII,59733,G,GPII,,Onshore Wind,,ERC_WEST,Texas,48,Knox,275,48275,150.0,0.0,2015.0,9999,,,N,Wind,,,,,,,,,,,,,,0.0,0.0,0.0,0.0,,,,,,,,,,,,Wind,59733.0,33.645964,-99.532944,,,,,,,,,0.0,0.0,POINT (-99.532944 33.645964),59,60,60,14.0530094329,5.34604098118,p60,rto10,p60,Wind,,0.0,150.0,15.313472654513117,0.0,0.0,39550.0,0.0,0.0,0,0.0,0,0,False,False,False,False,59733+GPII
196,Briscoe Wind Farm,59734_G_BFW,59734,G,BFW,,Onshore Wind,,ERC_PHDL,Texas,48,Briscoe,45,48045,150.0,0.0,2015.0,9999,,,N,Wind,,,,,,,,,,,,,,0.0,0.0,0.0,0.0,,,,,,,,,,,,Wind,59734.0,34.432267,-101.237233,,,,,,,,,0.0,0.0,POINT (-101.237233 34.432267),59,60,60,14.0530094329,5.34604098118,p60,rto10,p60,Wind,,0.0,150.0,15.313472654513117,0.0,0.0,39550.0,0.0,0.0,0,0.0,0,0,False,False,False,False,59734+BFW
197,Electra Wind Farm,60338_G_EWF,60338,G,EWF,,Onshore Wind,,ERC_WEST,Texas,48,Wilbarger,487,48487,230.0,0.0,2016.0,9999,,,N,Wind,,,,,,,,,,,,,,0.0,0.0,0.0,0.0,,,,,,,,,,,,Wind,60338.0,34.102943,-99.118746,,,,,,,,,0.0,0.0,POINT (-99.118746 34.102943),59,60,60,14.0530094329,5.34604098118,p60,rto10,p60,Wind,,0.0,230.0,23.480658070253448,0.0,0.0,39550.0,0.0,0.0,0,0.0,0,0,False,False,False,False,60338+EWF
198,Horse Creek Wind Farm,60339_G_HCWF,60339,G,HCWF,,Onshore Wind,,ERC_WEST,Texas,48,Haskell,207,48207,230.0,0.0,2016.0,9999,,,N,Wind,,,,,,,,,,,,,,0.0,0.0,0.0,0.0,,,,,,,,,,,,Wind,60339.0,33.35,-99.54,,,,,,,,,0.0,0.0,POINT (-99.54000000000001 33.35),59,60,60,14.0530094329,5.34604098118,p60,rto10,p60,Wind,,0.0,230.0,23.480658070253448,0.0,0.0,39550.0,0.0,0.0,0,0.0,0,0,False,False,False,False,60339+HCWF
200,"Blue Summit Storage, LLC",60690_G_WBSS,60690,G,WBSS,,Batteries,,ERC_WEST,Texas,48,Wilbarger,487,48487,30.0,0.0,2017.0,9999,,,N,Energy Storage,,,,,,,,,,,,,,0.0,0.0,0.0,0.0,,,,,,,,,,,,Energy Storage,60690.0,34.299,-99.399,60690.0,WBSS,12.6,30,30,Batteries,0.81,0.0,0.0,0.0,POINT (-99.399 34.299),59,60,60,14.0530094329,5.34604098118,p60,rto10,p60,Energy Storage,,0.0,30.0,0.0,30.0,0.0,0.0,0.0,0.0,0,0.0,1,1,False,False,False,False,60690+WBSS
201,Willow Springs Wind Farm,60901_G_WSPWF,60901,G,WSPWF,,Onshore Wind,,ERC_WEST,Texas,48,Haskell,207,48207,250.0,0.0,2017.0,9999,,,N,Wind,,,,,,,,,,,,,,0.0,0.0,0.0,0.0,,,,,,,,,,,,Wind,60901.0,33.345366,-99.624257,,,,,,,,,0.0,0.0,POINT (-99.624257 33.345366),59,60,60,14.0530094329,5.34604098118,p60,rto10,p60,Wind,,0.0,250.0,25.522454424188528,0.0,0.0,39550.0,0.0,0.0,0,0.0,0,0,False,False,False,False,60901+WSPWF
202,Dermott Wind,60902_G_DERM,60902,G,DERM,,Onshore Wind,,ERC_WEST,Texas,48,Scurry,415,48415,253.0,0.0,2017.0,9999,,,N,Wind,,,,,,,,,,,,,,0.0,0.0,0.0,0.0,,,,,,,,,,,,Wind,60902.0,32.863769,-100.975128,,,,,,,,,0.0,0.0,POINT (-100.975128 32.863769),59,60,60,14.0530094329,5.34604098118,p60,rto10,p60,Wind,,0.0,253.0,25.82872387727879,0.0,0.0,39550.0,0.0,0.0,0,0.0,0,0,False,False,False,False,60902+DERM
203,NRG Elbow Creek Energy Storage Project,61362_G_ECBS,61362,G,ECBS,,Batteries,,ERC_WEST,Texas,48,Howard,227,48227,2.0,0.0,2017.0,9999,,,N,Energy Storage,,,,,,,,,,,,,,0.0,0.0,0.0,0.0,,,,,,,,,,,,Energy Storage,61362.0,32.167575,-101.479217,61362.0,ECBS,0.7,2,2,Batteries,0.81,0.0,0.0,0.0,POINT (-101.479217 32.167575),59,60,60,14.0530094329,5.34604098118,p60,rto10,p60,Energy Storage,,0.0,2.0,0.0,2.0,0.0,0.0,0.0,0.0,0,0.0,1,1,False,False,False,False,61362+ECBS
205,King Mountain Wind Ranch 1,55581_G_EXIS,55581,G,EXIS,,Onshore Wind,,ERC_WEST,Texas,48,Upton,461,48461,278.0,0.0,2001.0,9999,,,N,Wind,,,,,,,,,,,,,,0.0,0.0,0.0,0.0,,,,,,,,,,,,Wind,55581.0,31.2092,-102.2417,,,,,,,,,0.0,0.0,POINT (-102.2417 31.2092),61,62,62,9.19136542403,2.63378546811,p62,rto10,p62,Wind,,0.0,278.0,28.380969319697645,0.0,0.0,39550.0,0.0,0.0,0,0.0,0,0,False,False,False,False,55581+EXIS
206,Sand Bluff Wind Farm,56479_G_2,56479,G,2,,Onshore Wind,,ERC_WEST,Texas,48,Glasscock,173,48173,90.0,0.0,2007.0,9999,,,N,Wind,,,,,,,,,,,,,,0.0,0.0,0.0,0.0,,,,,,,,,,,,Wind,56479.0,31.991442,-101.302637,,,,,,,,,0.0,0.0,POINT (-101.302637 31.991442),61,62,62,9.19136542403,2.63378546811,p62,rto10,p62,Wind,,0.0,90.0,9.188083592707871,0.0,0.0,39550.0,0.0,0.0,0,0.0,0,0,False,False,False,False,56479+2
207,Stanton Wind Energy LLC,56644_G_1,56644,G,1,,Onshore Wind,,ERC_WEST,Texas,48,Martin,317,48317,120.0,0.0,2008.0,9999,,,N,Wind,,,,,,,,,,,,,,0.0,0.0,0.0,0.0,,,,,,,,,,,,Wind,56644.0,32.2353,-101.8367,,,,,,,,,0.0,0.0,POINT (-101.8367 32.2353),61,62,62,9.19136542403,2.63378546811,p62,rto10,p62,Wind,,0.0,120.0,12.250778123610493,0.0,0.0,39550.0,0.0,0.0,0,0.0,0,0,False,False,False,False,56644+1
208,EC&R Panther Creek Wind Farm II,56921_G_1,56921,G,1,,Onshore Wind,,ERC_WEST,Texas,48,Glasscock,173,48173,115.5,0.0,2008.0,9999,,,N,Wind,,,,,,,,,,,,,,0.0,0.0,0.0,0.0,,,,,,,,,,,,Wind,56921.0,31.9361,-101.2983,,,,,,,,,0.0,0.0,POINT (-101.2983 31.9361),61,62,62,9.19136542403,2.63378546811,p62,rto10,p62,Wind,,0.0,115.5,11.7913739439751,0.0,0.0,39550.0,0.0,0.0,0,0.0,0,0,False,False,False,False,56921+1
209,Notrees Windpower,56961_G_BATT,56961,G,BATT,,Batteries,,ERC_WEST,Texas,48,Ector,135,48135,36.0,0.0,2012.0,9999,,,N,Energy Storage,,,,,,,,,,,,,,0.0,0.0,0.0,0.0,,,,,,,,,,,,Energy Storage,56961.0,31.995,-102.828333,56961.0,BATT,13.6,36,36,Batteries,0.81,0.0,0.0,0.0,POINT (-102.828333 31.995),61,62,62,9.19136542403,2.63378546811,p62,rto10,p62,Energy Storage,,0.0,36.0,0.0,36.0,0.0,0.0,0.0,0.0,0,0.0,1,1,False,False,False,False,56961+BATT
210,Notrees Windpower,56961_G_GE,56961,G,GE,,Onshore Wind,,ERC_WEST,Texas,48,Ector,135,48135,60.0,0.0,2009.0,9999,,,N,Wind,,,,,,,,,,,,,,0.0,0.0,0.0,0.0,,,,,,,,,,,,Wind,56961.0,31.995,-102.828333,,,,,,,,,0.0,0.0,POINT (-102.828333 31.995),61,62,62,9.19136542403,2.63378546811,p62,rto10,p62,Wind,,0.0,60.0,6.1253890618052464,0.0,0.0,39550.0,0.0,0.0,0,0.0,0,0,False,False,False,False,56961+GE
211,Notrees Windpower,56961_G_VESTA,56961,G,VESTA,,Onshore Wind,,ERC_WEST,Texas,48,Ector,135,48135,92.5,0.0,2009.0,9999,,,N,Wind,,,,,,,,,,,,,,0.0,0.0,0.0,0.0,,,,,,,,,,,,Wind,56961.0,31.995,-102.828333,,,,,,,,,0.0,0.0,POINT (-102.828333 31.995),61,62,62,9.19136542403,2.63378546811,p62,rto10,p62,Wind,,0.0,92.5,9.443308136949755,0.0,0.0,39550.0,0.0,0.0,0,0.0,0,0,False,False,False,False,56961+VESTA
212,Rattlesnake Den,59943_G_1,59943,G,1,,Onshore Wind,,ERC_WEST,Texas,48,Glasscock,173,48173,207.2,0.0,2015.0,9999,,,N,Wind,,,,,,,,,,,,,,0.0,0.0,0.0,0.0,,,,,,,,,,,,Wind,59943.0,31.74325,-101.493407,,,,,,,,,0.0,0.0,POINT (-101.493407 31.74325),61,62,62,9.19136542403,2.63378546811,p62,rto10,p62,Wind,,0.0,207.2,21.153010226767453,0.0,0.0,39550.0,0.0,0.0,0,0.0,0,0,False,False,False,False,59943+1
213,Bearkat,59972_G_BRKAT,59972,G,BRKAT,,Onshore Wind,,ERC_WEST,Texas,48,Glasscock,173,48173,360.0,0.0,2018.0,9999,,,N,Wind,,,,,,,,,,,,,,0.0,0.0,0.0,0.0,,,,,,,,,,,,Wind,59972.0,31.727237,-101.582,,,,,,,,,0.0,0.0,POINT (-101.582 31.727237),61,62,62,9.19136542403,2.63378546811,p62,rto10,p62,Wind,,0.0,360.0,36.752334370831484,0.0,0.0,39550.0,0.0,0.0,0,0.0,0,0,False,False,False,False,59972+BRKAT
215,Santa Rita Wind Energy,60987_G_GEN1,60987,G,GEN1,,Onshore Wind,,ERC_WEST,Texas,48,Reagan,383,48383,300.0,0.0,2018.0,9999,,,N,Wind,,,,,,,,,,,,,,0.0,0.0,0.0,0.0,,,,,,,,,,,,Wind,60987.0,31.181377,-101.318787,,,,,,,,,0.0,0.0,POINT (-101.318787 31.181377),61,62,62,9.19136542403,2.63378546811,p62,rto10,p62,Wind,,0.0,300.0,30.626945309026233,0.0,0.0,39550.0,0.0,0.0,0,0.0,0,0,False,False,False,False,60987+GEN1
216,NWP Indian Mesa Wind Farm,55747_G_NWP2,55747,G,NWP2,,Onshore Wind,,ERC_WEST,Texas,48,Pecos,371,48371,82.5,0.0,2001.0,9999,,,N,Wind,,,,,,,,,,,,,,0.0,0.0,0.0,0.0,,,,,,,,,,,,Wind,55747.0,30.931467,-102.201433,,,,,,,,,0.0,0.0,POINT (-102.201433 30.931467),60,61,61,26.1682725484,12.2218363972,p61,rto10,p61,Wind,,0.0,82.5,8.422409959982215,0.0,0.0,39550.0,0.0,0.0,0,0.0,0,0,False,False,False,False,55747+NWP2
217,Woodward Mountain II,55795_G_01,55795,G,01,,Onshore Wind,,ERC_WEST,Texas,48,Pecos,371,48371,78.0,0.0,2001.0,9999,,,N,Wind,,,,,,,,,,,,,,0.0,0.0,0.0,0.0,,,,,,,,,,,,Wind,55795.0,30.9514,-102.414067,,,,,,,,,0.0,0.0,POINT (-102.414067 30.9514),60,61,61,26.1682725484,12.2218363972,p61,rto10,p61,Wind,,0.0,78.0,7.963005780346821,0.0,0.0,39550.0,0.0,0.0,0,0.0,0,0,False,False,False,False,55795+01
218,Woodward Mountain I,55796_G_01,55796,G,01,,Onshore Wind,,ERC_WEST,Texas,48,Pecos,371,48371,82.0,0.0,2001.0,9999,,,N,Wind,,,,,,,,,,,,,,0.0,0.0,0.0,0.0,,,,,,,,,,,,Wind,55796.0,30.9514,-102.414067,,,,,,,,,0.0,0.0,POINT (-102.414067 30.9514),60,61,61,26.1682725484,12.2218363972,p61,rto10,p61,Wind,,0.0,82.0,8.371365051133838,0.0,0.0,39550.0,0.0,0.0,0,0.0,0,0,False,False,False,False,55796+01
219,Desert Sky,55992_G_1,55992,G,1,,Onshore Wind,,ERC_WEST,Texas,48,Pecos,371,48371,160.5,0.0,2002.0,9999,,,N,Wind,,,,,,,,,,,,,,0.0,0.0,0.0,0.0,,,,,,,,,,,,Wind,55992.0,30.9178,-102.0867,,,,,,,,,0.0,0.0,POINT (-102.0867 30.9178),60,61,61,26.1682725484,12.2218363972,p61,rto10,p61,Wind,,0.0,160.5,16.385415740329034,0.0,0.0,39550.0,0.0,0.0,0,0.0,0,0,False,False,False,False,55992+1
220,Buffalo Gap Wind Farm,56240_G_1,56240,G,1,,Onshore Wind,,ERC_WEST,Texas,48,Taylor,441,48441,120.6,0.0,2006.0,9999,,,N,Wind,,,,,,,,,,,,,,0.0,0.0,0.0,0.0,,,,,,,,,,,,Wind,56240.0,32.311556,-100.061589,,,,,,,,,0.0,0.0,POINT (-100.061589 32.311556),60,61,61,26.1682725484,12.2218363972,p61,rto10,p61,Wind,,0.0,120.6,12.312032014228546,0.0,0.0,39550.0,0.0,0.0,0,0.0,0,0,False,False,False,False,56240+1
221,Callahan Divide Wind Energy Center,56270_G_1,56270,G,1,,Onshore Wind,,ERC_WEST,Texas,48,Taylor,441,48441,114.0,0.0,2005.0,9999,,,N,Wind,,,,,,,,,,,,,,0.0,0.0,0.0,0.0,,,,,,,,,,,,Wind,56270.0,32.303889,-100.021667,,,,,,,,,0.0,0.0,POINT (-100.021667 32.303889),60,61,61,26.1682725484,12.2218363972,p61,rto10,p61,Wind,,0.0,114.0,11.63823921742997,0.0,0.0,39550.0,0.0,0.0,0,0.0,0,0,False,False,False,False,56270+1
222,Horse Hollow Wind Energy Center,56291_G_1,56291,G,1,,Onshore Wind,,ERC_WEST,Texas,48,Taylor,441,48441,213.0,0.0,2005.0,9999,,,N,Wind,,,,,,,,,,,,,,0.0,0.0,0.0,0.0,,,,,,,,,,,,Wind,56291.0,32.214024,-100.05712,,,,,,,,,0.0,0.0,POINT (-100.05712 32.214024),60,61,61,26.1682725484,12.2218363972,p61,rto10,p61,Wind,,0.0,213.0,21.745131169408626,0.0,0.0,39550.0,0.0,0.0,0,0.0,0,0,False,False,False,False,56291+1
223,Horse Hollow Wind Energy Center,56291_G_2,56291,G,2,,Onshore Wind,,ERC_WEST,Texas,48,Taylor,441,48441,223.5,0.0,2006.0,9999,,,N,Wind,,,,,,,,,,,,,,0.0,0.0,0.0,0.0,,,,,,,,,,,,Wind,56291.0,32.214024,-100.05712,,,,,,,,,0.0,0.0,POINT (-100.05712 32.214024),60,61,61,26.1682725484,12.2218363972,p61,rto10,p61,Wind,,0.0,223.5,22.817074255224547,0.0,0.0,39550.0,0.0,0.0,0,0.0,0,0,False,False,False,False,56291+2
224,Horse Hollow Wind Energy Center,56291_G_3,56291,G,3,,Onshore Wind,,ERC_WEST,Texas,48,Taylor,441,48441,299.0,0.0,2006.0,9999,,,N,Wind,,,,,,,,,,,,,,0.0,0.0,0.0,0.0,,,,,,,,,,,,Wind,56291.0,32.214024,-100.05712,,,,,,,,,0.0,0.0,POINT (-100.05712 32.214024),60,61,61,26.1682725484,12.2218363972,p61,rto10,p61,Wind,,0.0,299.0,30.52485549132948,0.0,0.0,39550.0,0.0,0.0,0,0.0,0,0,False,False,False,False,56291+3
225,Forest Creek Wind Farm LLC,56394_G_1,56394,G,1,,Onshore Wind,,ERC_WEST,Texas,48,Glasscock,173,48173,124.2,0.0,2006.0,9999,,,N,Wind,,,,,,,,,,,,,,0.0,0.0,0.0,0.0,,,,,,,,,,,,Wind,56394.0,32.039,-101.22,,,,,,,,,0.0,0.0,POINT (-101.22 32.039),60,61,61,26.1682725484,12.2218363972,p61,rto10,p61,Wind,,0.0,124.2,12.679555357936863,0.0,0.0,39550.0,0.0,0.0,0,0.0,0,0,False,False,False,False,56394+1
226,Post Oak Wind LLC,56483_G_1,56483,G,1,,Onshore Wind,,ERC_WEST,Texas,48,Shackelford,417,48417,200.0,0.0,2008.0,9999,,,N,Wind,,,,,,,,,,,,,,0.0,0.0,0.0,0.0,,,,,,,,,,,,Wind,56483.0,32.5144,-99.6564,,,,,,,,,0.0,0.0,POINT (-99.6564 32.5144),60,61,61,26.1682725484,12.2218363972,p61,rto10,p61,Wind,,0.0,200.0,20.417963539350822,0.0,0.0,39550.0,0.0,0.0,0,0.0,0,0,False,False,False,False,56483+1
227,Buffalo Gap 3 Wind Farm,56638_G_GEN1,56638,G,GEN1,,Onshore Wind,,ERC_WEST,Texas,48,Nolan,353,48353,170.2,0.0,2008.0,9999,,,N,Wind,,,,,,,,,,,,,,0.0,0.0,0.0,0.0,,,,,,,,,,,,Wind,56638.0,32.2878,-100.1,,,,,,,,,0.0,0.0,POINT (-100.1 32.2878),60,61,61,26.1682725484,12.2218363972,p61,rto10,p61,Wind,,0.0,170.2,17.375686971987548,0.0,0.0,39550.0,0.0,0.0,0,0.0,0,0,False,False,False,False,56638+GEN1
228,South Trent Wind Farm,56649_G_1,56649,G,1,,Onshore Wind,,ERC_WEST,Texas,48,Nolan,353,48353,101.2,0.0,2009.0,9999,,,N,Wind,,,,,,,,,,,,,,0.0,0.0,0.0,0.0,,,,,,,,,,,,Wind,56649.0,32.4081,-100.1286,,,,,,,,,0.0,0.0,POINT (-100.1286 32.4081),60,61,61,26.1682725484,12.2218363972,p61,rto10,p61,Wind,,0.0,101.2,10.331489550911517,0.0,0.0,39550.0,0.0,0.0,0,0.0,0,0,False,False,False,False,56649+1
229,Goat Wind LP,56754_G_1,56754,G,1,,Onshore Wind,,ERC_WEST,Texas,48,Sterling,431,48431,80.0,0.0,2008.0,9999,,,N,Wind,,,,,,,,,,,,,,0.0,0.0,0.0,0.0,,,,,,,,,,,,Wind,56754.0,31.951944,-100.791389,,,,,,,,,0.0,0.0,POINT (-100.791389 31.951944),60,61,61,26.1682725484,12.2218363972,p61,rto10,p61,Wind,,0.0,80.0,8.16718541574033,0.0,0.0,39550.0,0.0,0.0,0,0.0,0,0,False,False,False,False,56754+1
230,Goat Wind LP,56754_G_2,56754,G,2,,Onshore Wind,,ERC_WEST,Texas,48,Sterling,431,48431,69.6,0.0,2009.0,9999,,,N,Wind,,,,,,,,,,,,,,0.0,0.0,0.0,0.0,,,,,,,,,,,,Wind,56754.0,31.951944,-100.791389,,,,,,,,,0.0,0.0,POINT (-100.791389 31.951944),60,61,61,26.1682725484,12.2218363972,p61,rto10,p61,Wind,,0.0,69.6,7.105451311694085,0.0,0.0,39550.0,0.0,0.0,0,0.0,0,0,False,False,False,False,56754+2
231,Capricorn Ridge Wind LLC,56763_G_1,56763,G,1,,Onshore Wind,,ERC_WEST,Texas,48,Sterling,431,48431,149.5,0.0,2007.0,9999,,,N,Wind,,,,,,,,,,,,,,0.0,0.0,0.0,0.0,,,,,,,,,,,,Wind,56763.0,31.951958,-101.018936,,,,,,,,,0.0,0.0,POINT (-101.018936 31.951958),60,61,61,26.1682725484,12.2218363972,p61,rto10,p61,Wind,,0.0,149.5,15.26242774566474,0.0,0.0,39550.0,0.0,0.0,0,0.0,0,0,False,False,False,False,56763+1
232,Capricorn Ridge Wind LLC,56763_G_2,56763,G,2,,Onshore Wind,,ERC_WEST,Texas,48,Sterling,431,48431,214.5,0.0,2007.0,9999,,,N,Wind,,,,,,,,,,,,,,0.0,0.0,0.0,0.0,,,,,,,,,,,,Wind,56763.0,31.951958,-101.018936,,,,,,,,,0.0,0.0,POINT (-101.018936 31.951958),60,61,61,26.1682725484,12.2218363972,p61,rto10,p61,Wind,,0.0,214.5,21.89826589595376,0.0,0.0,39550.0,0.0,0.0,0,0.0,0,0,False,False,False,False,56763+2
233,Capricorn Ridge Wind LLC,56763_G_3,56763,G,3,,Onshore Wind,,ERC_WEST,Texas,48,Sterling,431,48431,186.0,0.0,2008.0,9999,,,N,Wind,,,,,,,,,,,,,,0.0,0.0,0.0,0.0,,,,,,,,,,,,Wind,56763.0,31.951958,-101.018936,,,,,,,,,0.0,0.0,POINT (-101.018936 31.951958),60,61,61,26.1682725484,12.2218363972,p61,rto10,p61,Wind,,0.0,186.0,18.988706091596267,0.0,0.0,39550.0,0.0,0.0,0,0.0,0,0,False,False,False,False,56763+3
234,Capricorn Ridge Wind LLC,56763_G_4,56763,G,4,,Onshore Wind,,ERC_WEST,Texas,48,Sterling,431,48431,112.5,0.0,2008.0,9999,,,N,Wind,,,,,,,,,,,,,,0.0,0.0,0.0,0.0,,,,,,,,,,,,Wind,56763.0,31.951958,-101.018936,,,,,,,,,0.0,0.0,POINT (-101.018936 31.951958),60,61,61,26.1682725484,12.2218363972,p61,rto10,p61,Wind,,0.0,112.5,11.485104490884837,0.0,0.0,39550.0,0.0,0.0,0,0.0,0,0,False,False,False,False,56763+4
235,Sherbino I Wind Farm,56779_G_1,56779,G,1,,Onshore Wind,,ERC_WEST,Texas,48,Pecos,371,48371,150.0,0.0,2008.0,9999,,,N,Wind,,,,,,,,,,,,,,0.0,0.0,0.0,0.0,,,,,,,,,,,,Wind,56779.0,30.807272,-102.355628,,,,,,,,,0.0,0.0,POINT (-102.355628 30.807272),60,61,61,26.1682725484,12.2218363972,p61,rto10,p61,Wind,,0.0,150.0,15.313472654513117,0.0,0.0,39550.0,0.0,0.0,0,0.0,0,0,False,False,False,False,56779+1
236,EC&R Panther Creek Wind Farm III,56979_G_1,56979,G,1,,Onshore Wind,,ERC_WEST,Texas,48,Sterling,431,48431,199.5,0.0,2009.0,9999,,,N,Wind,,,,,,,,,,,,,,0.0,0.0,0.0,0.0,,,,,,,,,,,,Wind,56979.0,31.9925,-101.1167,,,,,,,,,0.0,0.0,POINT (-101.1167 31.9925),60,61,61,26.1682725484,12.2218363972,p61,rto10,p61,Wind,,0.0,199.5,20.366918630502447,0.0,0.0,39550.0,0.0,0.0,0,0.0,0,0,False,False,False,False,56979+1
237,Langford Wind Power,57153_G_1,57153,G,1,,Onshore Wind,,ERC_WEST,Texas,48,Tom Green,451,48451,150.0,0.0,2009.0,9999,,,N,Wind,,,,,,,,,,,,,,0.0,0.0,0.0,0.0,,,,,,,,,,,,Wind,57153.0,31.085435,-100.67882,,,,,,,,,0.0,0.0,POINT (-100.67882 31.085435),60,61,61,26.1682725484,12.2218363972,p61,rto10,p61,Wind,,0.0,150.0,15.313472654513117,0.0,0.0,39550.0,0.0,0.0,0,0.0,0,0,False,False,False,False,57153+1
238,Sherbino II,57415_G_1,57415,G,1,,Onshore Wind,,ERC_WEST,Texas,48,Pecos,371,48371,145.0,0.0,2011.0,9999,,,N,Wind,,,,,,,,,,,,,,0.0,0.0,0.0,0.0,,,,,,,,,,,,Wind,57415.0,30.772575,-102.505808,,,,,,,,,0.0,0.0,POINT (-102.505808 30.772575),60,61,61,26.1682725484,12.2218363972,p61,rto10,p61,Wind,,0.0,145.0,14.803023566029346,0.0,0.0,39550.0,0.0,0.0,0,0.0,0,0,False,False,False,False,57415+1
239,"Anacacho Wind Farm, LLC",58000_G_ANA,58000,G,ANA,,Onshore Wind,,ERC_REST,Texas,48,Kinney,271,48271,99.8,0.0,2012.0,9999,,,N,Wind,,,,,,,,,,,,,,0.0,0.0,0.0,0.0,,,,,,,,,,,,Wind,58000.0,29.234722,-100.209167,,,,,,,,,0.0,0.0,POINT (-100.209167 29.234722),60,61,61,26.1682725484,12.2218363972,p61,rto10,p61,Wind,,0.0,99.8,10.18856380613606,0.0,0.0,39550.0,0.0,0.0,0,0.0,0,0,False,False,False,False,58000+ANA
246,Rocksprings,60217_G_RKSP,60217,G,RKSP,,Onshore Wind,,ERC_REST,Texas,48,Val Verde,465,48465,149.3,0.0,2017.0,9999,,,N,Wind,,,,,,,,,,,,,,0.0,0.0,0.0,0.0,,,,,,,,,,,,Wind,60217.0,29.72753,-100.79431,,,,,,,,,0.0,0.0,POINT (-100.79431 29.72753),60,61,61,26.1682725484,12.2218363972,p61,rto10,p61,Wind,,0.0,149.3,15.24200978212539,0.0,0.0,39550.0,0.0,0.0,0,0.0,0,0,False,False,False,False,60217+RKSP
248,ETT Presidio NaS Battery,60506_G_BOB,60506,G,BOB,,Batteries,,ERC_WEST,Texas,48,Presidio,377,48377,4.0,0.0,2010.0,9999,,,N,Energy Storage,,,,,,,,,,,,,,0.0,0.0,0.0,0.0,,,,,,,,,,,,Energy Storage,60506.0,29.566263,-104.35535,60506.0,BOB,4,4,4,Batteries,0.81,0.0,0.0,0.0,POINT (-104.35535 29.566263),60,61,61,26.1682725484,12.2218363972,p61,rto10,p61,Energy Storage,,0.0,4.0,0.0,4.0,0.0,0.0,0.0,0.0,0,0.0,1,1,False,False,False,False,60506+BOB
258,Baytown Energy Center,55327_G_CTG1,55327,G,CTG1COMBINED,4097.0,Combined Cycle,,ERC_REST,Texas,48,Chambers,71,48071,1082.0,8069.9519408502765,2002.0,9999,,,Y,Natural Gas,,,,,SCR,,,,,,,,,0.01062,0.01062,0.01062,0.01062,,,,,,,,,,,,Natural Gas,55327.0,29.7731,-94.9019,,,,,,,,,3.6509190329230177,117.0,POINT (-94.9019 29.7731),65,66,66,15.9340527498,3.27567832348,p66,rto13,p64,Combined Cycle,"(7720.0, 8200.0]",4.0,344.076,110461.18274788794,432.8,0.0,13170.0,3.5999999999999996,33.06274113562432,1,0.0,1,1,False,False,False,False,55327+CTG1COMBINED
259,Central Utility Plant - Texas A&M,58151_G_GTG01,58151,G,GTG01COMBINED,,Combined Cycle,,ERC_REST,Texas,48,Brazos,41,48041,43.4,7780.0,2011.0,9999,,,Y,"Natural Gas, Distillate Fuel Oil",,,,,SCR,,,,,,,,,0.03057,0.03057,0.03057,0.03057,,,,,,,,,,,,Natural Gas,58151.0,30.617778,-96.343333,,,,,,,,,3.6509190329230177,117.0,POINT (-96.343333 30.617778),63,64,64,17.6037588908,6.78793955885,p64,rto10,p64,Combined Cycle,"(7720.0, 8200.0]",4.0,27.732599999999998,4430.698088039128,17.36,0.0,13170.0,3.5999999999999996,32.00415007614108,1,0.0,1,1,False,False,False,False,58151+GTG01COMBINED
260,Hays Energy Project,55144_G_U1,55144,G,U1COMBINED,4002.0,Combined Cycle,,ERC_REST,Texas,48,Hays,209,48209,1406.0,7552.5846372688475,2002.0,9999,,,N,Natural Gas,,,,,SCR,2002.0,,,,,,,,0.01233,0.01233,0.01233,0.01233,,,,,,,,,,,,Natural Gas,55144.0,29.7806,-97.9894,,,,,,,,,3.6509190329230177,116.99999999999999,POINT (-97.9894 29.7806),63,64,64,17.6037588908,6.78793955885,p64,rto10,p64,Combined Cycle,"(7354.0, 7720.0]",4.0,447.108,143538.28368163627,562.4,0.0,13170.0,3.5999999999999996,31.17387499996682,1,0.0,1,1,False,False,False,False,55144+U1COMBINED
261,Cedar Bayou 4,56806_G_4,56806,G,4COMBINED,,Combined Cycle,,ERC_REST,Texas,48,Chambers,71,48071,502.0,7720.0,2009.0,9999,,,N,Natural Gas,,,,DLNB,SCR,2009.0,,,,,,,,0.01441,0.01441,0.01441,0.01441,,,,,,,,,,,,Natural Gas,56806.0,29.751645,-94.92312,,,,,,,,,3.6509190329230177,116.99999999999999,POINT (-94.92312 29.751645),65,66,66,15.9340527498,3.27567832348,p66,rto13,p64,Combined Cycle,"(7354.0, 7720.0]",4.0,159.636,51249.08848377056,200.8,0.0,13170.0,3.5999999999999996,31.7850949341657,1,0.0,1,1,False,False,False,False,56806+4COMBINED
263,Hal C Weaver Power Plant,50118_G_GEN9,50118,G,GEN9COMBINED,,Combined Cycle,,ERC_REST,Texas,48,Travis,453,48453,1698.1,7064.90371591779,2002.0,9999,,,Y,Natural Gas,,,,,SCR,,,,,,,,,0.02721,0.02721,0.02721,0.02721,,,,,,,,,,,,Natural Gas,50118.0,30.2867,-97.7356,,,,,,,,,3.6509190329230177,117.0,POINT (-97.73560000000001 30.2867),63,64,64,17.6037588908,6.78793955885,p64,rto10,p64,Combined Cycle,"(7049.999, 7130.0]",4.0,539.9958,173358.71943085815,679.24,0.0,13170.0,3.5999999999999996,29.39339144221281,1,0.0,1,1,False,False,False,False,50118+GEN9COMBINED
264,Thomas C Ferguson,4937_G_CT-1,4937,G,CT-1COMBINED,90812.0,Combined Cycle,,ERC_REST,Texas,48,Llano,299,48299,549.0,7054.808743169398,2014.0,9999,Other,,N,Natural Gas,,,,DLNB + NH3,SCR,2014.0,,,,,,,,0.00598,0.00598,0.00598,0.00598,,,,,,,,,,,,Natural Gas,4937.0,30.558,-98.3705,,,,,,,,,3.6509190329230177,117.0,POINT (-98.37050000000001 30.558),63,64,64,17.6037588908,6.78793955885,p64,rto10,p64,Combined Cycle,"(7049.999, 7130.0]",4.0,174.582,56047.30991551801,219.60000000000002,0.0,13170.0,3.5999999999999996,29.356535514068867,1,0.0,1,1,False,False,False,False,4937+CT-1COMBINED
265,Guadalupe Generating Station,55153_G_CTG1,55153,G,CTG1COMBINED,4028.0,Combined Cycle,,ERC_REST,Texas,48,Guadalupe,187,48187,1496.0,7299.113636363636,2000.0,9999,,,N,Natural Gas,,,,DLNB,,,,,,,,,,0.03224,0.03224,0.03224,0.03224,,,,,,,,,,,,Natural Gas,55153.0,29.6244,-98.1419,,,,,,,,,3.6509190329230177,117.00000000000001,POINT (-98.14190000000001 29.6244),63,64,64,17.6037588908,6.78793955885,p64,rto10,p64,Combined Cycle,"(7130.0, 7354.0]",4.0,475.728,152726.36727434414,598.4,0.0,13170.0,3.5999999999999996,30.248472898467938,1,0.0,1,1,False,False,False,False,55153+CTG1COMBINED
267,EG178 Facility,56233_G_CT02,56233,G,CT02COMBINED,,Combined Cycle,,ERC_WEST,Texas,48,Scurry,415,48415,110.0,7590.0,2005.0,9999,,,N,Natural Gas,,,,,SCR,,,,,,,,,0.02707,0.02707,0.02707,0.02707,,,,,,,,,,,,Natural Gas,56233.0,32.747058,-100.954661,,,,,,,,,3.6509190329230177,116.99999999999999,POINT (-100.954661 32.747058),59,60,60,14.0530094329,5.34604098118,p60,rto10,p60,Combined Cycle,"(7589.999, 7652.0]",4.0,34.980000000000004,11229.879946642952,44.0,0.0,13170.0,3.5999999999999996,31.3104754598857,1,0.0,1,1,False,False,False,False,56233+CT02COMBINED
276,Formosa Utility Venture Ltd,10554_G_ST3,10554,G,ST3COMBINED,,Combined Cycle,,ERC_REST,Texas,48,Calhoun,57,48057,485.3,5742.631568102205,2000.0,9999,,,Y,Natural Gas,,,,STM,,,,,,,,,,0.08253,0.08253,0.08253,0.08253,,,,,,,,,,,,Natural Gas,10554.0,28.6917,-96.5417,,,,,,,,,3.6509190329230177,116.99999999999999,POINT (-96.54170000000001 28.6917),64,65,65,51.695295702,9.56289745704,p65,rto10,p65,Combined Cycle,"(5499.999, 6487.0]",4.0,154.3254,49544.18852823477,194.12,0.0,13170.0,3.5999999999999996,24.565882891048894,1,0.0,1,1,False,False,False,False,10554+ST3COMBINED
277,Colorado Bend II,60122_G_CT7,60122,G,CT7COMBINED,91195.0,Combined Cycle,,ERC_REST,Texas,48,Wharton,481,48481,1087.8,6250.0,2017.0,9999,,,N,Natural Gas,,,,,SCR,,,,,,,,,0.00786,0.00786,0.00786,0.00786,,,,,,,,,,,,Natural Gas,60122.0,29.289415,-96.065399,,,,,,,,,3.6509190329230177,117.0,POINT (-96.065399 29.289415),64,65,65,51.695295702,9.56289745704,p65,rto10,p65,Combined Cycle,"(5499.999, 6487.0]",4.0,345.9204,111053.30369052912,435.12,0.0,13170.0,3.5999999999999996,26.418243955768858,1,0.0,1,1,False,False,False,False,60122+CT7COMBINED
279,Colorado Bend Energy Center,56350_G_CT1A,56350,G,CT1ACOMBINED,4573.0,Combined Cycle,,ERC_REST,Texas,48,Wharton,481,48481,264.0,8386.0,2002.0,9999,,,N,Natural Gas,,,,DLNB,SCR,,,,,,,,,0.01482,0.01482,0.01482,0.01482,,,,,,,,,,,,Natural Gas,56350.0,29.2878,-96.0683,,,,,,,,,3.6509190329230177,117.0,POINT (-96.06829999999999 29.2878),64,65,65,51.695295702,9.56289745704,p65,rto10,p65,Combined Cycle,"(7663.0, 8550.25]",4.0,83.952,26951.711871943084,105.60000000000001,0.0,13170.0,3.5999999999999996,34.216607010092424,1,0.0,1,1,False,False,False,False,56350+CT1ACOMBINED
280,Nueces Bay,3441_G_8,3441,G,8COMBINED,90242.0,Combined Cycle,,ERC_REST,Texas,48,Nueces,355,48355,992.0,7925.260080645161,2010.0,9999,,,N,Natural Gas,,,,DLNB + H2O + NH3,SCR,2009.0,,,,,,,0.06,0.01721,0.01721,0.01721,0.01721,,,,,,,,,,,,Natural Gas,3441.0,27.819412,-97.419203,,,,,,,,,3.6509190329230177,117.0,POINT (-97.419203 27.819412),64,65,65,51.695295702,9.56289745704,p65,rto10,p65,Combined Cycle,"(7663.0, 8550.25]",4.0,315.456,101273.09915518008,396.8,0.0,13170.0,3.5999999999999996,32.534482869292425,1,0.0,1,1,False,False,False,False,3441+8COMBINED
282,Sam Rayburn,3631_G_10,3631,G,10COMBINED,,Combined Cycle,,ERC_REST,Texas,48,Victoria,469,48469,682.0,9272.058651026393,2002.5,9999,,,N,"Natural Gas, Distillate Fuel Oil",,,,H2O,SCR,,,,,,,,,0.02027,0.02027,0.02027,0.02027,,,,,,,,,,,,Natural Gas,3631.0,28.8947,-97.135,,,,,,,,,3.6509190329230177,116.99999999999999,POINT (-97.13500000000001 28.8947),64,65,65,51.695295702,9.56289745704,p65,rto10,p65,Combined Cycle,"(8550.25, 9300.0]",4.0,216.876,69625.2556691863,272.8,0.0,13170.0,3.5999999999999996,37.45153540341078,1,0.0,1,1,False,False,False,False,3631+10COMBINED
283,Magic Valley Generating Station,55123_G_CTG1,55123,G,CTG1COMBINED,3951.0,Combined Cycle,,ERC_REST,Texas,48,Hidalgo,215,48215,2086.0,7339.4093959731545,2000.0,9999,,,N,Natural Gas,,,,,SCR,2000.0,,,,,,,,0.01572,0.01572,0.01572,0.01572,,,,,,,,,,,,Natural Gas,55123.0,26.3403,-98.19,,,,,,,,,3.6509190329230177,117.0,POINT (-98.19 26.3403),64,65,65,51.695295702,9.56289745704,p65,rto10,p65,Combined Cycle,"(6487.0, 7663.0]",4.0,663.348,212959.35971542908,834.4000000000001,0.0,13170.0,3.5999999999999996,30.395589454172416,1,0.0,1,1,False,False,False,False,55123+CTG1COMBINED
299,Pasadena Cogeneration,55047_G_CTG1,55047,G,CTG1COMBINED,3831.0,Combined Cycle,,ERC_REST,Texas,48,Harris,201,48201,1819.0,7096.8251786696,2003.0,9999,,,Y,Natural Gas,,,,,SCR,1998.0,,,,,,,,0.01493,0.01493,0.01493,0.01493,,,,,,,,,,,,Natural Gas,55047.0,29.72475,-95.176479,,,,,,,,,3.6509190329230177,117.0,POINT (-95.176479 29.72475),66,67,67,11.5739826538,1.08612173738,p67,rto10,p67,Combined Cycle,"(6210.5, 7590.0]",4.0,578.442,185701.37839039572,727.6,0.0,13170.0,3.5999999999999996,29.509934118132136,1,0.0,1,1,False,False,False,False,55047+CTG1COMBINED
300,Green Power 2,55470_G_ST805,55470,G,ST805COMBINED,,Combined Cycle,,ERC_REST,Texas,48,Galveston,167,48167,460.9,7590.000000000001,2007.0,9999,,,Y,Natural Gas,,,,DLNB,SCR,2003.0,,,,,,,,0.01042,0.01042,0.01042,0.01042,,,,,,,,,,,,Natural Gas,55470.0,29.378097,-94.932773,,,,,,,,,3.6509190329230177,117.00000000000001,POINT (-94.932773 29.378097),66,67,67,11.5739826538,1.08612173738,p67,rto10,p67,Combined Cycle,"(6210.5, 7590.0]",4.0,146.5662,47053.19697643397,184.36,0.0,13170.0,3.5999999999999996,31.31047545988571,1,0.0,1,1,False,False,False,False,55470+ST805COMBINED
301,Channelview Cogeneration Plant,55187_G_GT1,55187,G,GT1COMBINED,4077.0,Combined Cycle,,ERC_REST,Texas,48,Harris,201,48201,2356.2,5719.864018334606,2002.0,9999,,,Y,Natural Gas,,,,,SCR,,,,,,,,0.001,0.01055,0.01055,0.01055,0.01055,,,,,,,,,,,,Natural Gas,55187.0,29.836952,-95.121744,,,,,,,,,3.6509190329230177,117.0,POINT (-95.12174400000001 29.836952),66,67,67,11.5739826538,1.08612173738,p67,rto10,p67,Combined Cycle,"(5499.999, 6210.5]",4.0,749.2715999999999,240544.028457092,942.48,0.0,13170.0,3.5999999999999996,24.482760410269343,1,0.0,1,1,False,False,False,False,55187+GT1COMBINED
302,Channel Energy Center LLC,55299_G_CTG3,55299,G,CTG3COMBINED,,Combined Cycle,,ERC_REST,Texas,48,Harris,201,48201,337.8,5892.067495559502,2014.0,9999,,,Y,Natural Gas,,,,,SCR,,,,,,,,,0.01223,0.01183,0.01223,0.01183,,,,,,,,,,,,Natural Gas,55299.0,29.7189,-95.2319,,,,,,,,,3.6509190329230177,117.0,POINT (-95.2319 29.7189),66,67,67,11.5739826538,1.08612173738,p67,rto10,p67,Combined Cycle,"(5499.999, 6210.5]",4.0,107.4204,34485.94041796354,135.12,0.0,13170.0,3.5999999999999996,25.111461362805244,1,0.0,1,1,False,False,False,False,55299+CTG3COMBINED
314,Johnson County,54817_G_GT-1,54817,G,GT-1COMBINED,3804.0,Combined Cycle,,ERC_REST,Texas,48,Johnson,251,48251,2455.0,7851.436252545825,2000.0,9999,,,N,"Natural Gas, Distillate Fuel Oil",,,,,SCR,2006.0,,,,,,,,0.03418,0.03418,0.03418,0.03418,,,,,,,,,,,,Natural Gas,54817.0,32.3994,-97.4078,,,,,,,,,3.6509190329230177,117.00000000000001,POINT (-97.40779999999999 32.3994),62,63,63,27.0123565705,13.5558014155,p63,rto10,p63,Combined Cycle,"(7679.75, 11461.0]",4.0,780.69,250630.50244553134,982.0,0.0,13170.0,3.5999999999999996,32.26495805020132,1,0.0,1,1,False,False,False,False,54817+GT-1COMBINED
315,Lamar Power Project,55097_G_CTG1,55097,G,CTG1COMBINED,3879.0,Combined Cycle,,ERC_REST,Texas,48,Lamar,277,48277,3536.0,7527.773755656108,2003.0,9999,,,N,Natural Gas,,,,DLNB,,,,,,,,,,0.03437,0.03437,0.03437,0.03437,,,,,,,,,,,,Natural Gas,55097.0,33.6308,-95.59,,,,,,,,,3.6509190329230177,117.0,POINT (-95.59 33.6308),62,63,63,27.0123565705,13.5558014155,p63,rto10,p63,Combined Cycle,"(7373.0, 7679.75]",4.0,1124.448,360989.5953757225,1414.4,0.0,13170.0,3.5999999999999996,31.08329248006327,1,0.0,1,1,False,False,False,False,55097+CTG1COMBINED
316,Tenaska Gateway Generating Station,55132_G_GTG1,55132,G,GTG1COMBINED,3970.0,Combined Cycle,,ERC_GWAY,Texas,48,Rusk,401,48401,1798.0,7267.434927697442,2002.0,9999,,,N,"Natural Gas, Distillate Fuel Oil",,,,DLNB,,,,,,,,,,0.03339,0.03339,0.03339,0.03339,,,,,,,,,,,,Natural Gas,55132.0,32.017826,-94.619743,,,,,,,,,3.6509190329230177,117.0,POINT (-94.619743 32.017826),62,63,63,27.0123565705,13.5558014155,p63,rto10,p63,Combined Cycle,"(7177.0, 7373.0]",4.0,571.764,183557.4922187639,719.2,0.0,13170.0,3.5999999999999996,30.1328164980601,1,0.0,1,1,False,False,False,False,55132+GTG1COMBINED
317,Panda Sherman Power Station,58005_G_CTG-1,58005,G,CTG-1COMBINED,90809.0,Combined Cycle,,ERC_REST,Texas,48,Grayson,181,48181,717.0,7189.0,2014.0,9999,,,N,Natural Gas,,,,DLNB,SCR,,,,,,,,,0.00685,0.00685,0.00685,0.00685,,,,,,,,,,,,Natural Gas,58005.0,33.582573,-96.617893,,,,,,,,,3.6509190329230177,117.0,POINT (-96.617893 33.582573),62,63,63,27.0123565705,13.5558014155,p63,rto10,p63,Combined Cycle,"(7177.0, 7373.0]",4.0,228.006,73198.39928857269,286.8,0.0,13170.0,3.5999999999999996,29.846456927683576,1,0.0,1,1,False,False,False,False,58005+CTG-1COMBINED
318,Bosque County Peaking,55172_G_GT-1,55172,G,GT-1COMBINED,4054.0,Combined Cycle,,ERC_REST,Texas,48,Bosque,35,48035,907.5,7134.149862258952,2001.0,9999,,,N,Natural Gas,,,,DLNB,SCR,2011.0,,,,,,,,0.41406,0.01625,0.41406,0.01625,,,,,,,,,,,,Natural Gas,55172.0,31.8594,-97.3586,,,,,,,,,3.6509190329230177,117.0,POINT (-97.3586 31.8594),62,63,63,27.0123565705,13.5558014155,p63,rto10,p63,Combined Cycle,"(6249.999, 7177.0]",4.0,288.585,92646.50955980436,363.0,0.0,13170.0,3.5999999999999996,29.64620351584633,1,0.0,1,1,False,False,False,False,55172+GT-1COMBINED
319,Bosque County Peaking,55172_G_ST-5,55172,G,ST-5COMBINED,,Combined Cycle,,ERC_REST,Texas,48,Bosque,35,48035,2909.0,7117.937091784119,2011.0,9999,,,N,Natural Gas,,,,DLNB,SCR,2011.0,,,,,,,,0.41406,0.01625,0.41406,0.01625,,,,,,,,,,,,Natural Gas,55172.0,31.8594,-97.3586,,,,,,,,,3.6509190329230177,117.00000000000001,POINT (-97.3586 31.8594),62,63,63,27.0123565705,13.5558014155,p63,rto10,p63,Combined Cycle,"(6249.999, 7177.0]",4.0,925.062,296979.2796798577,1163.6000000000001,0.0,13170.0,3.5999999999999996,29.58701200354335,1,0.0,1,1,False,False,False,False,55172+ST-5COMBINED
320,Wolf Hollow II,59812_G_CGT4,59812,G,CGT4COMBINED,91202.0,Combined Cycle,,ERC_REST,Texas,48,Hood,221,48221,1069.3,6250.0,2017.0,9999,,,N,Natural Gas,,,,,SCR,,,,,,,,,0.00773,0.00773,0.00773,0.00773,,,,,,,,,,,,Natural Gas,59812.0,32.337679,-97.734612,,,,,,,,,3.6509190329230177,117.0,POINT (-97.734612 32.337679),62,63,63,27.0123565705,13.5558014155,p63,rto10,p63,Combined Cycle,"(6249.999, 7177.0]",4.0,340.0374,109164.64206313917,427.72,0.0,13170.0,3.5999999999999996,26.418243955768858,1,0.0,1,1,False,False,False,False,59812+CGT4COMBINED
322,Major Oak Power,7030_B_U1,7030,B,U1COMBINED,2920.0,Coal Steam,,ERC_REST,Texas,48,Robertson,395,48395,305.0,11559.698360655737,1990.5,9999,FBC,wet,N,"Lignite, Subbituminous",Reagent Injection,1990.0,0.78,ROFA,SNCR,,2007.0,B,,ACI,2011.0,,0.58,0.15553,0.07782,0.15553,0.07782,0.1,0.1,0.1,0.95,Yes,1990.0,,,,,,Lignite,7030.0,31.091925,-96.69503,,,,,,,,,1.751942379046926,215.4,POINT (-96.69503 31.091925),62,63,63,27.0123565705,13.5558014155,p63,rto10,p63,Lignite,"(11234.0, 11652.0]",12.0,54.595,31137.394397510005,122.0,0.0,37800.0,4.47,24.721925447032064,1,0.0,1,1,False,False,False,False,7030+U1COMBINED
325,Odessa Ector Generating Station,55215_G_CTG1,55215,G,CTG1COMBINED,4149.0,Combined Cycle,,ERC_WEST,Texas,48,Ector,135,48135,984.0,7428.0,2001.0,9999,,,N,Natural Gas,,,,DLNB,,,,,,,,,,0.03202,0.03202,0.03202,0.03202,,,,,,,,,,,,Natural Gas,55215.0,31.8403,-102.3264,,,,,,,,,3.6509190329230177,117.0,POINT (-102.3264 31.8403),61,62,62,9.19136542403,2.63378546811,p62,rto10,p62,Combined Cycle,"(7427.999, 8084.0]",4.0,312.912,100456.38061360604,393.6,0.0,13170.0,3.5999999999999996,30.719026576552174,1,0.0,1,1,False,False,False,False,55215+CTG1COMBINED
326,Quail Run Energy Center,56349_G_CT2A,56349,G,CT2ACOMBINED,4575.0,Combined Cycle,,ERC_WEST,Texas,48,Ector,135,48135,140.0,8740.0,2002.0,9999,,,N,Natural Gas,,,,DLNB,SCR,,,,,,,,,0.02225,0.02225,0.02225,0.02225,,,,,,,,,,,,Natural Gas,56349.0,31.8414,-102.315,,,,,,,,,3.6509190329230177,117.0,POINT (-102.315 31.8414),61,62,62,9.19136542403,2.63378546811,p62,rto10,p62,Combined Cycle,"(8084.0, 8740.0]",4.0,44.52,14292.574477545575,56.0,0.0,13170.0,3.5999999999999996,35.50903234774717,1,0.0,1,1,False,False,False,False,56349+CT2ACOMBINED
327,Quail Run Energy Center,56349_G_CT1A,56349,G,CT1ACOMBINED,89698.0,Combined Cycle,,ERC_WEST,Texas,48,Ector,135,48135,342.0,8740.0,2007.0,9999,,,N,Natural Gas,,,,DLNB,SCR,,,,,,,,,0.02551,0.02551,0.02551,0.02551,,,,,,,,,,,,Natural Gas,56349.0,31.8414,-102.315,,,,,,,,,3.6509190329230177,117.0,POINT (-102.315 31.8414),61,62,62,9.19136542403,2.63378546811,p62,rto10,p62,Combined Cycle,"(8084.0, 8740.0]",4.0,108.756,34914.7176522899,136.8,0.0,13170.0,3.5999999999999996,35.50903234774717,1,0.0,1,1,False,False,False,False,56349+CT1ACOMBINED
